[
    {
        "id": 1,
        "latitud": 21.7667164,
        "localidades_nombre": "Acapulco",
        "longitud": -102.2817606,
        "nombre_estado": "Aguascalientes",
        "nombre_municipio": "Aguascalientes"
    },
    {
        "id": 2,
        "latitud": 22.1659725,
        "localidades_nombre": "20 de Noviembre [Sociedad]",
        "longitud": -102.0657003,
        "nombre_estado": "Aguascalientes",
        "nombre_municipio": "Asientos"
    },
    {
        "id": 3,
        "latitud": 21.8613803,
        "localidades_nombre": "Antorchistas [Fraccionamiento]",
        "longitud": -102.7247717,
        "nombre_estado": "Aguascalientes",
        "nombre_municipio": "Calvillo"
    },
    {
        "id": 4,
        "latitud": 22.3705431,
        "localidades_nombre": "Alfredo López Monreal",
        "longitud": -102.2671417,
        "nombre_estado": "Aguascalientes",
        "nombre_municipio": "Cosío"
    },
    {
        "id": 5,
        "latitud": 21.89612,
        "localidades_nombre": "Agronómica (Las Tres Almas) [Colonia]",
        "longitud": -102.454245,
        "nombre_estado": "Aguascalientes",
        "nombre_municipio": "Jesús María"
    },
    {
        "id": 6,
        "latitud": 22.1384675,
        "localidades_nombre": "11 del 11 [Rancho]",
        "longitud": -102.2357769,
        "nombre_estado": "Aguascalientes",
        "nombre_municipio": "Pabellón de Arteaga"
    },
    {
        "id": 7,
        "latitud": 22.3498558,
        "localidades_nombre": "16 de Septiembre",
        "longitud": -102.2051358,
        "nombre_estado": "Aguascalientes",
        "nombre_municipio": "Rincón de Romos"
    },
    {
        "id": 8,
        "latitud": 22.1719842,
        "localidades_nombre": "Abel Medina",
        "longitud": -102.5557367,
        "nombre_estado": "Aguascalientes",
        "nombre_municipio": "San José de Gracia"
    },
    {
        "id": 9,
        "latitud": 22.2647719,
        "localidades_nombre": "Ampliación los Hornos (El Lagunazo) [Colonia]",
        "longitud": -102.2536153,
        "nombre_estado": "Aguascalientes",
        "nombre_municipio": "Tepezalá"
    },
    {
        "id": 10,
        "latitud": 21.8007797,
        "localidades_nombre": "Amapolas de Abajo",
        "longitud": -102.0646697,
        "nombre_estado": "Aguascalientes",
        "nombre_municipio": "El Llano"
    },
    {
        "id": 11,
        "latitud": 22.0522544,
        "localidades_nombre": "7 Puertas (Plan el Espejo)",
        "longitud": -102.2932369,
        "nombre_estado": "Aguascalientes",
        "nombre_municipio": "San Francisco de los Romo"
    },
    {
        "id": 12,
        "latitud": 30.0581436,
        "localidades_nombre": "ABC",
        "longitud": -115.7077233,
        "nombre_estado": "Baja California",
        "nombre_municipio": "Ensenada"
    },
    {
        "id": 13,
        "latitud": 32.6302133,
        "localidades_nombre": "Agua Clara del Valle",
        "longitud": -114.8334881,
        "nombre_estado": "Baja California",
        "nombre_municipio": "Mexicali"
    },
    {
        "id": 14,
        "latitud": 32.4260008,
        "localidades_nombre": "Agua Caliente",
        "longitud": -116.230105,
        "nombre_estado": "Baja California",
        "nombre_municipio": "Tecate"
    },
    {
        "id": 15,
        "latitud": 32.4508153,
        "localidades_nombre": "AV [Rancho]",
        "longitud": -117.1075989,
        "nombre_estado": "Baja California",
        "nombre_municipio": "Tijuana"
    },
    {
        "id": 16,
        "latitud": 32.3169817,
        "localidades_nombre": "Agua Marina",
        "longitud": -117.0153164,
        "nombre_estado": "Baja California",
        "nombre_municipio": "Playas de Rosarito"
    },
    {
        "id": 17,
        "latitud": 25.4411267,
        "localidades_nombre": "Acatic Lote 2",
        "longitud": -111.9326306,
        "nombre_estado": "Baja California Sur",
        "nombre_municipio": "Comondú"
    },
    {
        "id": 18,
        "latitud": 27.0281561,
        "localidades_nombre": "Agua Amarga",
        "longitud": -112.31205,
        "nombre_estado": "Baja California Sur",
        "nombre_municipio": "Mulegé"
    },
    {
        "id": 19,
        "latitud": 23.6901678,
        "localidades_nombre": "A Dónde",
        "longitud": -110.0499547,
        "nombre_estado": "Baja California Sur",
        "nombre_municipio": "La Paz"
    },
    {
        "id": 20,
        "latitud": 23.2374203,
        "localidades_nombre": "6 Hermanos",
        "longitud": -109.9169564,
        "nombre_estado": "Baja California Sur",
        "nombre_municipio": "Los Cabos"
    },
    {
        "id": 21,
        "latitud": 25.5783847,
        "localidades_nombre": "Agua Amarga",
        "longitud": -111.3699725,
        "nombre_estado": "Baja California Sur",
        "nombre_municipio": "Loreto"
    },
    {
        "id": 22,
        "latitud": 20.3173564,
        "localidades_nombre": "Anexo San Mateo",
        "longitud": -90.0417758,
        "nombre_estado": "Campeche",
        "nombre_municipio": "Calkiní"
    },
    {
        "id": 23,
        "latitud": 19.88219,
        "localidades_nombre": "ABR Construcciones",
        "longitud": -90.4624892,
        "nombre_estado": "Campeche",
        "nombre_municipio": "Campeche"
    },
    {
        "id": 24,
        "latitud": 18.7283094,
        "localidades_nombre": "Abelardo L. Rodríguez",
        "longitud": -90.9052358,
        "nombre_estado": "Campeche",
        "nombre_municipio": "Carmen"
    },
    {
        "id": 25,
        "latitud": 19.2517528,
        "localidades_nombre": "3 Hermanos",
        "longitud": -90.7714317,
        "nombre_estado": "Campeche",
        "nombre_municipio": "Champotón"
    },
    {
        "id": 26,
        "latitud": 20.1949258,
        "localidades_nombre": "Blanca Flor",
        "longitud": -90.0376111,
        "nombre_estado": "Campeche",
        "nombre_municipio": "Hecelchakán"
    },
    {
        "id": 27,
        "latitud": 19.7843789,
        "localidades_nombre": "ALMEC [Fábrica de Láminas]",
        "longitud": -89.8283511,
        "nombre_estado": "Campeche",
        "nombre_municipio": "Hopelchén"
    },
    {
        "id": 28,
        "latitud": 18.0202092,
        "localidades_nombre": "30 de Mayo",
        "longitud": -91.8714839,
        "nombre_estado": "Campeche",
        "nombre_municipio": "Palizada"
    },
    {
        "id": 29,
        "latitud": 19.9119625,
        "localidades_nombre": "Chaakán",
        "longitud": -90.0972233,
        "nombre_estado": "Campeche",
        "nombre_municipio": "Tenabo"
    },
    {
        "id": 30,
        "latitud": 18.6273053,
        "localidades_nombre": "ALICAM",
        "longitud": -90.9570411,
        "nombre_estado": "Campeche",
        "nombre_municipio": "Escárcega"
    },
    {
        "id": 31,
        "latitud": 18.4879211,
        "localidades_nombre": "Araucarias",
        "longitud": -89.2524347,
        "nombre_estado": "Campeche",
        "nombre_municipio": "Calakmul"
    },
    {
        "id": 32,
        "latitud": 18.0005989,
        "localidades_nombre": "2 Hermanos",
        "longitud": -90.9973294,
        "nombre_estado": "Campeche",
        "nombre_municipio": "Candelaria"
    },
    {
        "id": 33,
        "latitud": 27.1819444,
        "localidades_nombre": "Abasolo",
        "longitud": -101.4263889,
        "nombre_estado": "Coahuila de Zaragoza",
        "nombre_municipio": "Abasolo"
    },
    {
        "id": 34,
        "latitud": 29.2678306,
        "localidades_nombre": "Abelardo Pérez Colunga",
        "longitud": -100.8765542,
        "nombre_estado": "Coahuila de Zaragoza",
        "nombre_municipio": "Acuña"
    },
    {
        "id": 35,
        "latitud": 28.3704622,
        "localidades_nombre": "Alfonso Valdez",
        "longitud": -100.7895133,
        "nombre_estado": "Coahuila de Zaragoza",
        "nombre_municipio": "Allende"
    },
    {
        "id": 36,
        "latitud": 25.4916469,
        "localidades_nombre": "Agua Blanca",
        "longitud": -100.6003056,
        "nombre_estado": "Coahuila de Zaragoza",
        "nombre_municipio": "Arteaga"
    },
    {
        "id": 37,
        "latitud": 26.8293294,
        "localidades_nombre": "2 Hermanos",
        "longitud": -100.6324222,
        "nombre_estado": "Coahuila de Zaragoza",
        "nombre_municipio": "Candela"
    },
    {
        "id": 38,
        "latitud": 26.7745139,
        "localidades_nombre": "Abel Sepúlveda",
        "longitud": -101.4411556,
        "nombre_estado": "Coahuila de Zaragoza",
        "nombre_municipio": "Castaños"
    },
    {
        "id": 39,
        "latitud": 27.1789667,
        "localidades_nombre": "Alfalfar [Sociedad de Producción Rural]",
        "longitud": -102.2492442,
        "nombre_estado": "Coahuila de Zaragoza",
        "nombre_municipio": "Cuatro Ciénegas"
    },
    {
        "id": 40,
        "latitud": 27.2287422,
        "localidades_nombre": "Agua de la Herradura",
        "longitud": -101.1494017,
        "nombre_estado": "Coahuila de Zaragoza",
        "nombre_municipio": "Escobedo"
    },
    {
        "id": 41,
        "latitud": 25.7231472,
        "localidades_nombre": "Alamito",
        "longitud": -103.3048822,
        "nombre_estado": "Coahuila de Zaragoza",
        "nombre_municipio": "Francisco I. Madero"
    },
    {
        "id": 42,
        "latitud": 26.9399822,
        "localidades_nombre": "Acatlán",
        "longitud": -101.4883917,
        "nombre_estado": "Coahuila de Zaragoza",
        "nombre_municipio": "Frontera"
    },
    {
        "id": 43,
        "latitud": 25.3877803,
        "localidades_nombre": "4 Hermanos (Juan Antonio Rodríguez Morales)",
        "longitud": -101.5442772,
        "nombre_estado": "Coahuila de Zaragoza",
        "nombre_municipio": "General Cepeda"
    },
    {
        "id": 44,
        "latitud": 27.9313119,
        "localidades_nombre": "Agua Nueva",
        "longitud": -100.573595,
        "nombre_estado": "Coahuila de Zaragoza",
        "nombre_municipio": "Guerrero"
    },
    {
        "id": 45,
        "latitud": 27.7964875,
        "localidades_nombre": "Agua Verde",
        "longitud": -99.9378878,
        "nombre_estado": "Coahuila de Zaragoza",
        "nombre_municipio": "Hidalgo"
    },
    {
        "id": 46,
        "latitud": 28.9769403,
        "localidades_nombre": "Abundio Medina",
        "longitud": -100.7484586,
        "nombre_estado": "Coahuila de Zaragoza",
        "nombre_municipio": "Jiménez"
    },
    {
        "id": 47,
        "latitud": 27.6394686,
        "localidades_nombre": "Agua Dulce",
        "longitud": -100.9954967,
        "nombre_estado": "Coahuila de Zaragoza",
        "nombre_municipio": "Juárez"
    },
    {
        "id": 48,
        "latitud": 27.1632578,
        "localidades_nombre": "Alejandro Menchaca",
        "longitud": -101.9094119,
        "nombre_estado": "Coahuila de Zaragoza",
        "nombre_municipio": "Lamadrid"
    },
    {
        "id": 49,
        "latitud": 25.6771414,
        "localidades_nombre": "Albia [Granja]",
        "longitud": -103.3595283,
        "nombre_estado": "Coahuila de Zaragoza",
        "nombre_municipio": "Matamoros"
    },
    {
        "id": 50,
        "latitud": 26.9731286,
        "localidades_nombre": "Alan Sánchez Ballesteros",
        "longitud": -101.3831072,
        "nombre_estado": "Coahuila de Zaragoza",
        "nombre_municipio": "Monclova"
    },
    {
        "id": 51,
        "latitud": 28.3787564,
        "localidades_nombre": "7 Mares [Restaurante Pescadería]",
        "longitud": -100.8578792,
        "nombre_estado": "Coahuila de Zaragoza",
        "nombre_municipio": "Morelos"
    },
    {
        "id": 52,
        "latitud": 27.9095019,
        "localidades_nombre": "Abundio Nieto",
        "longitud": -101.3592042,
        "nombre_estado": "Coahuila de Zaragoza",
        "nombre_municipio": "Múzquiz"
    },
    {
        "id": 53,
        "latitud": 27.0507386,
        "localidades_nombre": "Alfredo Puentes",
        "longitud": -101.6075197,
        "nombre_estado": "Coahuila de Zaragoza",
        "nombre_municipio": "Nadadores"
    },
    {
        "id": 54,
        "latitud": 28.5388856,
        "localidades_nombre": "Abel Puente",
        "longitud": -100.4471122,
        "nombre_estado": "Coahuila de Zaragoza",
        "nombre_municipio": "Nava"
    },
    {
        "id": 55,
        "latitud": 28.2342417,
        "localidades_nombre": "Acebuches",
        "longitud": -102.9023139,
        "nombre_estado": "Coahuila de Zaragoza",
        "nombre_municipio": "Ocampo"
    },
    {
        "id": 56,
        "latitud": 25.6037417,
        "localidades_nombre": "4 Ángeles",
        "longitud": -102.144575,
        "nombre_estado": "Coahuila de Zaragoza",
        "nombre_municipio": "Parras"
    },
    {
        "id": 57,
        "latitud": 28.8232589,
        "localidades_nombre": "Abelino Fuentes",
        "longitud": -100.5596269,
        "nombre_estado": "Coahuila de Zaragoza",
        "nombre_municipio": "Piedras Negras"
    },
    {
        "id": 58,
        "latitud": 27.3806,
        "localidades_nombre": "Agua Buena",
        "longitud": -101.152875,
        "nombre_estado": "Coahuila de Zaragoza",
        "nombre_municipio": "Progreso"
    },
    {
        "id": 59,
        "latitud": 26.1499472,
        "localidades_nombre": "Abraham Guerra Cano",
        "longitud": -101.1382786,
        "nombre_estado": "Coahuila de Zaragoza",
        "nombre_municipio": "Ramos Arizpe"
    },
    {
        "id": 60,
        "latitud": 27.863275,
        "localidades_nombre": "3 Palmas",
        "longitud": -101.1551889,
        "nombre_estado": "Coahuila de Zaragoza",
        "nombre_municipio": "Sabinas"
    },
    {
        "id": 61,
        "latitud": 27.0154417,
        "localidades_nombre": "Alejandro de Luna",
        "longitud": -101.7899333,
        "nombre_estado": "Coahuila de Zaragoza",
        "nombre_municipio": "Sacramento"
    },
    {
        "id": 62,
        "latitud": 25.2401119,
        "localidades_nombre": "Abraham Carrizales Moreno",
        "longitud": -101.0544008,
        "nombre_estado": "Coahuila de Zaragoza",
        "nombre_municipio": "Saltillo"
    },
    {
        "id": 63,
        "latitud": 27.0386053,
        "localidades_nombre": "Alina y Karen",
        "longitud": -101.523925,
        "nombre_estado": "Coahuila de Zaragoza",
        "nombre_municipio": "San Buenaventura"
    },
    {
        "id": 64,
        "latitud": 27.9816528,
        "localidades_nombre": "Agua Linda",
        "longitud": -101.4841306,
        "nombre_estado": "Coahuila de Zaragoza",
        "nombre_municipio": "San Juan de Sabinas"
    },
    {
        "id": 65,
        "latitud": 25.8149472,
        "localidades_nombre": "Aarón Loma",
        "longitud": -103.106775,
        "nombre_estado": "Coahuila de Zaragoza",
        "nombre_municipio": "San Pedro"
    },
    {
        "id": 66,
        "latitud": 28.1251442,
        "localidades_nombre": "Año Nuevo",
        "longitud": -103.6793442,
        "nombre_estado": "Coahuila de Zaragoza",
        "nombre_municipio": "Sierra Mojada"
    },
    {
        "id": 67,
        "latitud": 25.6662778,
        "localidades_nombre": "Albia",
        "longitud": -103.3622864,
        "nombre_estado": "Coahuila de Zaragoza",
        "nombre_municipio": "Torreón"
    },
    {
        "id": 68,
        "latitud": 25.3043525,
        "localidades_nombre": "8 de Abril (Pozo 2030) [Sociedad de Producción Agropecuaria]",
        "longitud": -103.4853283,
        "nombre_estado": "Coahuila de Zaragoza",
        "nombre_municipio": "Viesca"
    },
    {
        "id": 69,
        "latitud": 28.2724453,
        "localidades_nombre": "Adolfo Melchor",
        "longitud": -100.6938514,
        "nombre_estado": "Coahuila de Zaragoza",
        "nombre_municipio": "Villa Unión"
    },
    {
        "id": 70,
        "latitud": 28.4469389,
        "localidades_nombre": "Abelardo Galván",
        "longitud": -100.8529,
        "nombre_estado": "Coahuila de Zaragoza",
        "nombre_municipio": "Zaragoza"
    },
    {
        "id": 71,
        "latitud": 18.9178894,
        "localidades_nombre": "Adolfo Rodríguez",
        "longitud": -103.9537703,
        "nombre_estado": "Colima",
        "nombre_municipio": "Armería"
    },
    {
        "id": 72,
        "latitud": 19.145,
        "localidades_nombre": "Acatitán",
        "longitud": -103.7244444,
        "nombre_estado": "Colima",
        "nombre_municipio": "Colima"
    },
    {
        "id": 73,
        "latitud": 19.3956133,
        "localidades_nombre": "Adán Ceballos Fierros",
        "longitud": -103.7709353,
        "nombre_estado": "Colima",
        "nombre_municipio": "Comala"
    },
    {
        "id": 74,
        "latitud": 19.1838889,
        "localidades_nombre": "Adolfo Montes",
        "longitud": -103.9288889,
        "nombre_estado": "Colima",
        "nombre_municipio": "Coquimatlán"
    },
    {
        "id": 75,
        "latitud": 19.3217236,
        "localidades_nombre": "Abel Valdovinos",
        "longitud": -103.5778136,
        "nombre_estado": "Colima",
        "nombre_municipio": "Cuauhtémoc"
    },
    {
        "id": 76,
        "latitud": 18.9388889,
        "localidades_nombre": "Agua de la Virgen",
        "longitud": -103.6277778,
        "nombre_estado": "Colima",
        "nombre_municipio": "Ixtlahuacán"
    },
    {
        "id": 77,
        "latitud": 19.1480481,
        "localidades_nombre": "Abraham Quiñones",
        "longitud": -104.3119408,
        "nombre_estado": "Colima",
        "nombre_municipio": "Manzanillo"
    },
    {
        "id": 78,
        "latitud": 19.3024089,
        "localidades_nombre": "Agua Fría",
        "longitud": -104.0625294,
        "nombre_estado": "Colima",
        "nombre_municipio": "Minatitlán"
    },
    {
        "id": 79,
        "latitud": 18.9320094,
        "localidades_nombre": "Alberto Gudiño",
        "longitud": -103.9105897,
        "nombre_estado": "Colima",
        "nombre_municipio": "Tecomán"
    },
    {
        "id": 80,
        "latitud": 19.3053006,
        "localidades_nombre": "Abel Díaz Chávez",
        "longitud": -103.8165444,
        "nombre_estado": "Colima",
        "nombre_municipio": "Villa de Álvarez"
    },
    {
        "id": 81,
        "latitud": 15.3783919,
        "localidades_nombre": "3 Garcías",
        "longitud": -92.7277058,
        "nombre_estado": "Chiapas",
        "nombre_municipio": "Acacoyagua"
    },
    {
        "id": 82,
        "latitud": 16.5516736,
        "localidades_nombre": "Acala",
        "longitud": -92.8075083,
        "nombre_estado": "Chiapas",
        "nombre_municipio": "Acala"
    },
    {
        "id": 83,
        "latitud": 15.28889,
        "localidades_nombre": "5 Hermanos",
        "longitud": -92.78056,
        "nombre_estado": "Chiapas",
        "nombre_municipio": "Acapetahua"
    },
    {
        "id": 84,
        "latitud": 16.7170142,
        "localidades_nombre": "12 de Octubre",
        "longitud": -92.0492061,
        "nombre_estado": "Chiapas",
        "nombre_municipio": "Altamirano"
    },
    {
        "id": 85,
        "latitud": 17.4134144,
        "localidades_nombre": "Acapulco",
        "longitud": -92.8612961,
        "nombre_estado": "Chiapas",
        "nombre_municipio": "Amatán"
    },
    {
        "id": 86,
        "latitud": 15.5576136,
        "localidades_nombre": "Agua Escondida",
        "longitud": -92.1841436,
        "nombre_estado": "Chiapas",
        "nombre_municipio": "Amatenango de la Frontera"
    },
    {
        "id": 87,
        "latitud": 16.5285014,
        "localidades_nombre": "Amatenango del Valle",
        "longitud": -92.4354906,
        "nombre_estado": "Chiapas",
        "nombre_municipio": "Amatenango del Valle"
    },
    {
        "id": 88,
        "latitud": 15.8384383,
        "localidades_nombre": "Agapito Pérez",
        "longitud": -92.7029239,
        "nombre_estado": "Chiapas",
        "nombre_municipio": "Angel Albino Corzo"
    },
    {
        "id": 89,
        "latitud": 16.1991875,
        "localidades_nombre": "25 de Marzo (La Pampa)",
        "longitud": -93.8953708,
        "nombre_estado": "Chiapas",
        "nombre_municipio": "Arriaga"
    },
    {
        "id": 90,
        "latitud": 15.4732483,
        "localidades_nombre": "Altamirano",
        "longitud": -92.1896158,
        "nombre_estado": "Chiapas",
        "nombre_municipio": "Bejucal de Ocampo"
    },
    {
        "id": 91,
        "latitud": 15.6559314,
        "localidades_nombre": "Allende",
        "longitud": -92.2235536,
        "nombre_estado": "Chiapas",
        "nombre_municipio": "Bella Vista"
    },
    {
        "id": 92,
        "latitud": 16.8394453,
        "localidades_nombre": "Agua Escondida",
        "longitud": -93.3063944,
        "nombre_estado": "Chiapas",
        "nombre_municipio": "Berriozábal"
    },
    {
        "id": 93,
        "latitud": 16.9971656,
        "localidades_nombre": "Agua Bendita",
        "longitud": -92.9280239,
        "nombre_estado": "Chiapas",
        "nombre_municipio": "Bochil"
    },
    {
        "id": 94,
        "latitud": 17.0325461,
        "localidades_nombre": "Altagracia",
        "longitud": -92.7749017,
        "nombre_estado": "Chiapas",
        "nombre_municipio": "El Bosque"
    },
    {
        "id": 95,
        "latitud": 15.0489172,
        "localidades_nombre": "24 de Junio (La Gallera)",
        "longitud": -92.2007478,
        "nombre_estado": "Chiapas",
        "nombre_municipio": "Cacahoatán"
    },
    {
        "id": 96,
        "latitud": 17.7450097,
        "localidades_nombre": "Agua Fría",
        "longitud": -92.0967069,
        "nombre_estado": "Chiapas",
        "nombre_municipio": "Catazajá"
    },
    {
        "id": 97,
        "latitud": 16.6015211,
        "localidades_nombre": "14 de Febrero",
        "longitud": -93.9169136,
        "nombre_estado": "Chiapas",
        "nombre_municipio": "Cintalapa"
    },
    {
        "id": 98,
        "latitud": 17.1153308,
        "localidades_nombre": "Buenavista",
        "longitud": -93.1250639,
        "nombre_estado": "Chiapas",
        "nombre_municipio": "Coapilla"
    },
    {
        "id": 99,
        "latitud": 16.2628472,
        "localidades_nombre": "19 de Julio",
        "longitud": -92.1101472,
        "nombre_estado": "Chiapas",
        "nombre_municipio": "Comitán de Domínguez"
    },
    {
        "id": 100,
        "latitud": 16.0189628,
        "localidades_nombre": "11 Santa Rosa",
        "longitud": -92.8585075,
        "nombre_estado": "Chiapas",
        "nombre_municipio": "La Concordia"
    },
    {
        "id": 101,
        "latitud": 17.1133792,
        "localidades_nombre": "Aceldama",
        "longitud": -93.2452853,
        "nombre_estado": "Chiapas",
        "nombre_municipio": "Copainalá"
    },
    {
        "id": 102,
        "latitud": 17.0680728,
        "localidades_nombre": "Abanchén",
        "longitud": -92.5524692,
        "nombre_estado": "Chiapas",
        "nombre_municipio": "Chalchihuitán"
    },
    {
        "id": 103,
        "latitud": 16.7793786,
        "localidades_nombre": "Agil Santa Rita",
        "longitud": -92.7644078,
        "nombre_estado": "Chiapas",
        "nombre_municipio": "Chamula"
    },
    {
        "id": 104,
        "latitud": 16.6600619,
        "localidades_nombre": "Chanal",
        "longitud": -92.2599422,
        "nombre_estado": "Chiapas",
        "nombre_municipio": "Chanal"
    },
    {
        "id": 105,
        "latitud": 17.2730986,
        "localidades_nombre": "Buenavista Caracol",
        "longitud": -93.0755136,
        "nombre_estado": "Chiapas",
        "nombre_municipio": "Chapultenango"
    },
    {
        "id": 106,
        "latitud": 16.9874483,
        "localidades_nombre": "Acteal",
        "longitud": -92.5108633,
        "nombre_estado": "Chiapas",
        "nombre_municipio": "Chenalhó"
    },
    {
        "id": 107,
        "latitud": 16.7462758,
        "localidades_nombre": "16 de Febrero",
        "longitud": -93.0115744,
        "nombre_estado": "Chiapas",
        "nombre_municipio": "Chiapa de Corzo"
    },
    {
        "id": 108,
        "latitud": 16.5704931,
        "localidades_nombre": "Chiapilla",
        "longitud": -92.720025,
        "nombre_estado": "Chiapas",
        "nombre_municipio": "Chiapilla"
    },
    {
        "id": 109,
        "latitud": 17.0315533,
        "localidades_nombre": "Agua Zarca",
        "longitud": -93.1370722,
        "nombre_estado": "Chiapas",
        "nombre_municipio": "Chicoasén"
    },
    {
        "id": 110,
        "latitud": 15.7104256,
        "localidades_nombre": "15 de Enero",
        "longitud": -92.2555192,
        "nombre_estado": "Chiapas",
        "nombre_municipio": "Chicomuselo"
    },
    {
        "id": 111,
        "latitud": 17.1828864,
        "localidades_nombre": "1ra. Yalxex",
        "longitud": -92.1398486,
        "nombre_estado": "Chiapas",
        "nombre_municipio": "Chilón"
    },
    {
        "id": 112,
        "latitud": 15.3040853,
        "localidades_nombre": "15 de Junio Dos",
        "longitud": -92.6562856,
        "nombre_estado": "Chiapas",
        "nombre_municipio": "Escuintla"
    },
    {
        "id": 113,
        "latitud": 17.28333,
        "localidades_nombre": "Agua Fría",
        "longitud": -93.35,
        "nombre_estado": "Chiapas",
        "nombre_municipio": "Francisco León"
    },
    {
        "id": 114,
        "latitud": 15.6958717,
        "localidades_nombre": "1a. Ampliación Monte Redondo",
        "longitud": -92.1049667,
        "nombre_estado": "Chiapas",
        "nombre_municipio": "Frontera Comalapa"
    },
    {
        "id": 115,
        "latitud": 14.7676247,
        "localidades_nombre": "Cantón Santa Cruz",
        "longitud": -92.2001975,
        "nombre_estado": "Chiapas",
        "nombre_municipio": "Frontera Hidalgo"
    },
    {
        "id": 116,
        "latitud": 15.4670025,
        "localidades_nombre": "Agua Escondida",
        "longitud": -92.2074331,
        "nombre_estado": "Chiapas",
        "nombre_municipio": "La Grandeza"
    },
    {
        "id": 117,
        "latitud": 14.9583094,
        "localidades_nombre": "5 de Mayo",
        "longitud": -92.3522186,
        "nombre_estado": "Chiapas",
        "nombre_municipio": "Huehuetán"
    },
    {
        "id": 118,
        "latitud": 16.7510761,
        "localidades_nombre": "Adolfo López Mateos",
        "longitud": -92.4147622,
        "nombre_estado": "Chiapas",
        "nombre_municipio": "Huixtán"
    },
    {
        "id": 119,
        "latitud": 17.2664231,
        "localidades_nombre": "10 de Febrero",
        "longitud": -92.7907931,
        "nombre_estado": "Chiapas",
        "nombre_municipio": "Huitiupán"
    },
    {
        "id": 120,
        "latitud": 15.0634883,
        "localidades_nombre": "Alberto García Reyes",
        "longitud": -92.5792497,
        "nombre_estado": "Chiapas",
        "nombre_municipio": "Huixtla"
    },
    {
        "id": 121,
        "latitud": 16.2008144,
        "localidades_nombre": "24 de Abril",
        "longitud": -91.9224558,
        "nombre_estado": "Chiapas",
        "nombre_municipio": "La Independencia"
    },
    {
        "id": 122,
        "latitud": 17.3052575,
        "localidades_nombre": "Agua Azul",
        "longitud": -92.9988128,
        "nombre_estado": "Chiapas",
        "nombre_municipio": "Ixhuatán"
    },
    {
        "id": 123,
        "latitud": 17.4401308,
        "localidades_nombre": "Acapulco",
        "longitud": -93.1309136,
        "nombre_estado": "Chiapas",
        "nombre_municipio": "Ixtacomitán"
    },
    {
        "id": 124,
        "latitud": 16.7945775,
        "localidades_nombre": "20 de Octubre",
        "longitud": -92.883815,
        "nombre_estado": "Chiapas",
        "nombre_municipio": "Ixtapa"
    },
    {
        "id": 125,
        "latitud": 17.5158086,
        "localidades_nombre": "Cacatal",
        "longitud": -93.0160661,
        "nombre_estado": "Chiapas",
        "nombre_municipio": "Ixtapangajoya"
    },
    {
        "id": 126,
        "latitud": 16.8031236,
        "localidades_nombre": "Absalón Castellanos Domínguez",
        "longitud": -93.5879569,
        "nombre_estado": "Chiapas",
        "nombre_municipio": "Jiquipilas"
    },
    {
        "id": 127,
        "latitud": 17.1053031,
        "localidades_nombre": "Agua Dulce",
        "longitud": -92.8206958,
        "nombre_estado": "Chiapas",
        "nombre_municipio": "Jitotol"
    },
    {
        "id": 128,
        "latitud": 17.6771764,
        "localidades_nombre": "Aldama 1ra. Sección",
        "longitud": -93.1723764,
        "nombre_estado": "Chiapas",
        "nombre_municipio": "Juárez"
    },
    {
        "id": 129,
        "latitud": 16.90556,
        "localidades_nombre": "Ajtic Carrizal",
        "longitud": -92.7825,
        "nombre_estado": "Chiapas",
        "nombre_municipio": "Larráinzar"
    },
    {
        "id": 130,
        "latitud": 17.7015556,
        "localidades_nombre": "Agua Blanca",
        "longitud": -91.7832961,
        "nombre_estado": "Chiapas",
        "nombre_municipio": "La Libertad"
    },
    {
        "id": 131,
        "latitud": 15.3567394,
        "localidades_nombre": "10 de Abril",
        "longitud": -93.0339072,
        "nombre_estado": "Chiapas",
        "nombre_municipio": "Mapastepec"
    },
    {
        "id": 132,
        "latitud": 16.42455,
        "localidades_nombre": "27 de Marzo del 94 (El Quis)",
        "longitud": -91.98548890000001,
        "nombre_estado": "Chiapas",
        "nombre_municipio": "Las Margaritas"
    },
    {
        "id": 133,
        "latitud": 15.36472,
        "localidades_nombre": "Alberta González Salas",
        "longitud": -92.175,
        "nombre_estado": "Chiapas",
        "nombre_municipio": "Mazapa de Madero"
    },
    {
        "id": 134,
        "latitud": 14.8069642,
        "localidades_nombre": "19 de Abril",
        "longitud": -92.4984694,
        "nombre_estado": "Chiapas",
        "nombre_municipio": "Mazatán"
    },
    {
        "id": 135,
        "latitud": 14.8051539,
        "localidades_nombre": "Cacahoatales",
        "longitud": -92.2040369,
        "nombre_estado": "Chiapas",
        "nombre_municipio": "Metapa"
    },
    {
        "id": 136,
        "latitud": 16.8859358,
        "localidades_nombre": "Alamul",
        "longitud": -92.5263886,
        "nombre_estado": "Chiapas",
        "nombre_municipio": "Mitontic"
    },
    {
        "id": 137,
        "latitud": 15.2394206,
        "localidades_nombre": "20 de Noviembre",
        "longitud": -92.4113783,
        "nombre_estado": "Chiapas",
        "nombre_municipio": "Motozintla"
    },
    {
        "id": 138,
        "latitud": 16.4520914,
        "localidades_nombre": "El Potrero",
        "longitud": -92.6091947,
        "nombre_estado": "Chiapas",
        "nombre_municipio": "Nicolás Ruíz"
    },
    {
        "id": 139,
        "latitud": 16.0792858,
        "localidades_nombre": "13 de Septiembre",
        "longitud": -91.0224492,
        "nombre_estado": "Chiapas",
        "nombre_municipio": "Ocosingo"
    },
    {
        "id": 140,
        "latitud": 17.2192761,
        "localidades_nombre": "Benito Juárez",
        "longitud": -93.1545447,
        "nombre_estado": "Chiapas",
        "nombre_municipio": "Ocotepec"
    },
    {
        "id": 141,
        "latitud": 16.59194,
        "localidades_nombre": "15 de Septiembre (El Chango)",
        "longitud": -93.2875,
        "nombre_estado": "Chiapas",
        "nombre_municipio": "Ocozocoautla de Espinosa"
    },
    {
        "id": 142,
        "latitud": 17.5665161,
        "localidades_nombre": "Agua Prieta",
        "longitud": -93.4260983,
        "nombre_estado": "Chiapas",
        "nombre_municipio": "Ostuacán"
    },
    {
        "id": 143,
        "latitud": 16.8577861,
        "localidades_nombre": "Agua Fría",
        "longitud": -93.0374056,
        "nombre_estado": "Chiapas",
        "nombre_municipio": "Osumacinta"
    },
    {
        "id": 144,
        "latitud": 16.719715,
        "localidades_nombre": "16 de Septiembre",
        "longitud": -92.2911442,
        "nombre_estado": "Chiapas",
        "nombre_municipio": "Oxchuc"
    },
    {
        "id": 145,
        "latitud": 17.4349722,
        "localidades_nombre": "20 de Febrero",
        "longitud": -91.7968611,
        "nombre_estado": "Chiapas",
        "nombre_municipio": "Palenque"
    },
    {
        "id": 146,
        "latitud": 17.0996328,
        "localidades_nombre": "Aquiles Serdán (Santa Lucía)",
        "longitud": -92.4935847,
        "nombre_estado": "Chiapas",
        "nombre_municipio": "Pantelhó"
    },
    {
        "id": 147,
        "latitud": 17.1517153,
        "localidades_nombre": "Berlín",
        "longitud": -93.0830894,
        "nombre_estado": "Chiapas",
        "nombre_municipio": "Pantepec"
    },
    {
        "id": 148,
        "latitud": 17.5533006,
        "localidades_nombre": "Blanquillo 1ra. Sección",
        "longitud": -93.0886286,
        "nombre_estado": "Chiapas",
        "nombre_municipio": "Pichucalco"
    },
    {
        "id": 149,
        "latitud": 15.5190767,
        "localidades_nombre": "12 de Febrero",
        "longitud": -93.1296894,
        "nombre_estado": "Chiapas",
        "nombre_municipio": "Pijijiapan"
    },
    {
        "id": 150,
        "latitud": 15.4096147,
        "localidades_nombre": "20 de Noviembre",
        "longitud": -92.2183944,
        "nombre_estado": "Chiapas",
        "nombre_municipio": "El Porvenir"
    },
    {
        "id": 151,
        "latitud": 15.1668769,
        "localidades_nombre": "13 de Abril",
        "longitud": -92.5595317,
        "nombre_estado": "Chiapas",
        "nombre_municipio": "Villa Comaltitlán"
    },
    {
        "id": 152,
        "latitud": 17.1895,
        "localidades_nombre": "Arroyo Grande",
        "longitud": -92.8710392,
        "nombre_estado": "Chiapas",
        "nombre_municipio": "Pueblo Nuevo Solistahuacán"
    },
    {
        "id": 153,
        "latitud": 17.1712825,
        "localidades_nombre": "Aguacate Pijuy",
        "longitud": -93.0159197,
        "nombre_estado": "Chiapas",
        "nombre_municipio": "Rayón"
    },
    {
        "id": 154,
        "latitud": 17.8377372,
        "localidades_nombre": "Cristo Rey",
        "longitud": -93.2765208,
        "nombre_estado": "Chiapas",
        "nombre_municipio": "Reforma"
    },
    {
        "id": 155,
        "latitud": 16.3505706,
        "localidades_nombre": "Agua Azufrada",
        "longitud": -92.3575661,
        "nombre_estado": "Chiapas",
        "nombre_municipio": "Las Rosas"
    },
    {
        "id": 156,
        "latitud": 17.2733553,
        "localidades_nombre": "12 de Octubre",
        "longitud": -92.5424606,
        "nombre_estado": "Chiapas",
        "nombre_municipio": "Sabanilla"
    },
    {
        "id": 157,
        "latitud": 17.3638733,
        "localidades_nombre": "AchLum Maya",
        "longitud": -92.1304619,
        "nombre_estado": "Chiapas",
        "nombre_municipio": "Salto de Agua"
    },
    {
        "id": 158,
        "latitud": 16.62549,
        "localidades_nombre": "Agua de León",
        "longitud": -92.5904814,
        "nombre_estado": "Chiapas",
        "nombre_municipio": "San Cristóbal de las Casas"
    },
    {
        "id": 159,
        "latitud": 16.8223997,
        "localidades_nombre": "16 de Septiembre",
        "longitud": -93.1748453,
        "nombre_estado": "Chiapas",
        "nombre_municipio": "San Fernando"
    },
    {
        "id": 160,
        "latitud": 15.5382686,
        "localidades_nombre": "20 de Noviembre",
        "longitud": -92.3213819,
        "nombre_estado": "Chiapas",
        "nombre_municipio": "Siltepec"
    },
    {
        "id": 161,
        "latitud": 17.1354136,
        "localidades_nombre": "20 de Noviembre",
        "longitud": -92.5848847,
        "nombre_estado": "Chiapas",
        "nombre_municipio": "Simojovel"
    },
    {
        "id": 162,
        "latitud": 17.0431122,
        "localidades_nombre": "11 de Abril",
        "longitud": -92.3298272,
        "nombre_estado": "Chiapas",
        "nombre_municipio": "Sitalá"
    },
    {
        "id": 163,
        "latitud": 16.1862028,
        "localidades_nombre": "2 de Noviembre",
        "longitud": -92.4193028,
        "nombre_estado": "Chiapas",
        "nombre_municipio": "Socoltenango"
    },
    {
        "id": 164,
        "latitud": 17.3352603,
        "localidades_nombre": "Agustín Rubio (Santa Fe la Zacualpa)",
        "longitud": -93.0027469,
        "nombre_estado": "Chiapas",
        "nombre_municipio": "Solosuchiapa"
    },
    {
        "id": 165,
        "latitud": 16.8930675,
        "localidades_nombre": "Adolfo López Mateos",
        "longitud": -92.9361558,
        "nombre_estado": "Chiapas",
        "nombre_municipio": "Soyaló"
    },
    {
        "id": 166,
        "latitud": 16.5615044,
        "localidades_nombre": "Blue Star",
        "longitud": -93.0616069,
        "nombre_estado": "Chiapas",
        "nombre_municipio": "Suchiapa"
    },
    {
        "id": 167,
        "latitud": 14.6635064,
        "localidades_nombre": "15 de Septiembre",
        "longitud": -92.2589739,
        "nombre_estado": "Chiapas",
        "nombre_municipio": "Suchiate"
    },
    {
        "id": 168,
        "latitud": 17.5000503,
        "localidades_nombre": "Camalote",
        "longitud": -93.2462219,
        "nombre_estado": "Chiapas",
        "nombre_municipio": "Sunuapa"
    },
    {
        "id": 169,
        "latitud": 15.0446422,
        "localidades_nombre": "10 de Marzo",
        "longitud": -92.2637569,
        "nombre_estado": "Chiapas",
        "nombre_municipio": "Tapachula"
    },
    {
        "id": 170,
        "latitud": 17.2483831,
        "localidades_nombre": "Arroyo Seco",
        "longitud": -93.1383106,
        "nombre_estado": "Chiapas",
        "nombre_municipio": "Tapalapa"
    },
    {
        "id": 171,
        "latitud": 17.2677842,
        "localidades_nombre": "Crisol",
        "longitud": -92.9888242,
        "nombre_estado": "Chiapas",
        "nombre_municipio": "Tapilula"
    },
    {
        "id": 172,
        "latitud": 17.1140792,
        "localidades_nombre": "Achimella",
        "longitud": -93.3522092,
        "nombre_estado": "Chiapas",
        "nombre_municipio": "Tecpatán"
    },
    {
        "id": 173,
        "latitud": 16.7755064,
        "localidades_nombre": "Achlum",
        "longitud": -92.4464911,
        "nombre_estado": "Chiapas",
        "nombre_municipio": "Tenejapa"
    },
    {
        "id": 174,
        "latitud": 16.6272464,
        "localidades_nombre": "Agua Escondida",
        "longitud": -92.5297342,
        "nombre_estado": "Chiapas",
        "nombre_municipio": "Teopisca"
    },
    {
        "id": 175,
        "latitud": 17.3224889,
        "localidades_nombre": "1ro. de Mayo",
        "longitud": -92.4261978,
        "nombre_estado": "Chiapas",
        "nombre_municipio": "Tila"
    },
    {
        "id": 176,
        "latitud": 15.9459656,
        "localidades_nombre": "24 de Febrero",
        "longitud": -93.5923825,
        "nombre_estado": "Chiapas",
        "nombre_municipio": "Tonalá"
    },
    {
        "id": 177,
        "latitud": 16.5166839,
        "localidades_nombre": "Chachi",
        "longitud": -92.6816161,
        "nombre_estado": "Chiapas",
        "nombre_municipio": "Totolapa"
    },
    {
        "id": 178,
        "latitud": 16.0588942,
        "localidades_nombre": "12 de Julio",
        "longitud": -92.1403747,
        "nombre_estado": "Chiapas",
        "nombre_municipio": "La Trinitaria"
    },
    {
        "id": 179,
        "latitud": 17.3032181,
        "localidades_nombre": "Aguas Calientes",
        "longitud": -92.2684681,
        "nombre_estado": "Chiapas",
        "nombre_municipio": "Tumbalá"
    },
    {
        "id": 180,
        "latitud": 16.6697197,
        "localidades_nombre": "Adelita",
        "longitud": -93.0905086,
        "nombre_estado": "Chiapas",
        "nombre_municipio": "Tuxtla Gutiérrez"
    },
    {
        "id": 181,
        "latitud": 14.9805103,
        "localidades_nombre": "15 de Abril",
        "longitud": -92.1745856,
        "nombre_estado": "Chiapas",
        "nombre_municipio": "Tuxtla Chico"
    },
    {
        "id": 182,
        "latitud": 15.1564417,
        "localidades_nombre": "6 de Abril",
        "longitud": -92.4378683,
        "nombre_estado": "Chiapas",
        "nombre_municipio": "Tuzantán"
    },
    {
        "id": 183,
        "latitud": 15.9979489,
        "localidades_nombre": "Agua Bendita",
        "longitud": -92.2830908,
        "nombre_estado": "Chiapas",
        "nombre_municipio": "Tzimol"
    },
    {
        "id": 184,
        "latitud": 15.0687744,
        "localidades_nombre": "Cafetal Miriam",
        "longitud": -92.0815431,
        "nombre_estado": "Chiapas",
        "nombre_municipio": "Unión Juárez"
    },
    {
        "id": 185,
        "latitud": 16.3260819,
        "localidades_nombre": "12 de Diciembre",
        "longitud": -92.4622661,
        "nombre_estado": "Chiapas",
        "nombre_municipio": "Venustiano Carranza"
    },
    {
        "id": 186,
        "latitud": 16.1505881,
        "localidades_nombre": "1ro. de Mayo",
        "longitud": -93.1149389,
        "nombre_estado": "Chiapas",
        "nombre_municipio": "Villa Corzo"
    },
    {
        "id": 187,
        "latitud": 16.3402678,
        "localidades_nombre": "2 Potrillos",
        "longitud": -93.2196419,
        "nombre_estado": "Chiapas",
        "nombre_municipio": "Villaflores"
    },
    {
        "id": 188,
        "latitud": 17.1607122,
        "localidades_nombre": "Acabalná",
        "longitud": -92.3297303,
        "nombre_estado": "Chiapas",
        "nombre_municipio": "Yajalón"
    },
    {
        "id": 189,
        "latitud": 16.6295683,
        "localidades_nombre": "Chacampon del Carmen",
        "longitud": -92.7417344,
        "nombre_estado": "Chiapas",
        "nombre_municipio": "San Lucas"
    },
    {
        "id": 190,
        "latitud": 16.7029239,
        "localidades_nombre": "Ajtetic Alto",
        "longitud": -92.8256444,
        "nombre_estado": "Chiapas",
        "nombre_municipio": "Zinacantán"
    },
    {
        "id": 191,
        "latitud": 16.9951817,
        "localidades_nombre": "Axultic",
        "longitud": -92.4087742,
        "nombre_estado": "Chiapas",
        "nombre_municipio": "San Juan Cancuc"
    },
    {
        "id": 192,
        "latitud": 16.9178178,
        "localidades_nombre": "Aldama",
        "longitud": -92.6881919,
        "nombre_estado": "Chiapas",
        "nombre_municipio": "Aldama"
    },
    {
        "id": 193,
        "latitud": 16.3631658,
        "localidades_nombre": "2 Hermanos",
        "longitud": -90.484025,
        "nombre_estado": "Chiapas",
        "nombre_municipio": "Benemérito de las Américas"
    },
    {
        "id": 194,
        "latitud": 16.2249889,
        "localidades_nombre": "20 de Noviembre",
        "longitud": -91.1678194,
        "nombre_estado": "Chiapas",
        "nombre_municipio": "Maravilla Tenejapa"
    },
    {
        "id": 195,
        "latitud": 16.1565744,
        "localidades_nombre": "Absalón Castellanos Domínguez",
        "longitud": -90.6517889,
        "nombre_estado": "Chiapas",
        "nombre_municipio": "Marqués de Comillas"
    },
    {
        "id": 196,
        "latitud": 15.7471719,
        "localidades_nombre": "Argelia",
        "longitud": -92.5789828,
        "nombre_estado": "Chiapas",
        "nombre_municipio": "Montecristo de Guerrero"
    },
    {
        "id": 197,
        "latitud": 17.1199272,
        "localidades_nombre": "El Ocotal",
        "longitud": -92.7715281,
        "nombre_estado": "Chiapas",
        "nombre_municipio": "San Andrés Duraznal"
    },
    {
        "id": 198,
        "latitud": 16.94238,
        "localidades_nombre": "Boquem",
        "longitud": -92.7079633,
        "nombre_estado": "Chiapas",
        "nombre_municipio": "Santiago el Pinar"
    },
    {
        "id": 199,
        "latitud": 15.5649672,
        "localidades_nombre": "Agua Tibia",
        "longitud": -92.6442128,
        "nombre_estado": "Chiapas",
        "nombre_municipio": "Capitán Luis Ángel Vidal"
    },
    {
        "id": 200,
        "latitud": 17.2436406,
        "localidades_nombre": "El Rinconcito",
        "longitud": -92.891155,
        "nombre_estado": "Chiapas",
        "nombre_municipio": "Rincón Chamula San Pedro"
    },
    {
        "id": 201,
        "latitud": 16.4080872,
        "localidades_nombre": "15 de Diciembre",
        "longitud": -92.9641025,
        "nombre_estado": "Chiapas",
        "nombre_municipio": "El Parral"
    },
    {
        "id": 202,
        "latitud": 16.5752128,
        "localidades_nombre": "2 Potrancas",
        "longitud": -92.930235,
        "nombre_estado": "Chiapas",
        "nombre_municipio": "Emiliano Zapata"
    },
    {
        "id": 203,
        "latitud": 17.2346928,
        "localidades_nombre": "Achiote",
        "longitud": -93.6782953,
        "nombre_estado": "Chiapas",
        "nombre_municipio": "Mezcalapa"
    },
    {
        "id": 204,
        "latitud": 30.55792,
        "localidades_nombre": "Adolfo Ruiz Cortínez",
        "longitud": -106.8607997,
        "nombre_estado": "Chihuahua",
        "nombre_municipio": "Ahumada"
    },
    {
        "id": 205,
        "latitud": 28.9532703,
        "localidades_nombre": "Acebuches",
        "longitud": -105.0125331,
        "nombre_estado": "Chihuahua",
        "nombre_municipio": "Aldama"
    },
    {
        "id": 206,
        "latitud": 27.3181519,
        "localidades_nombre": "Abel",
        "longitud": -105.1533886,
        "nombre_estado": "Chihuahua",
        "nombre_municipio": "Allende"
    },
    {
        "id": 207,
        "latitud": 28.5342986,
        "localidades_nombre": "Camilo Soto [Corrales]",
        "longitud": -105.9345103,
        "nombre_estado": "Chihuahua",
        "nombre_municipio": "Aquiles Serdán"
    },
    {
        "id": 208,
        "latitud": 31.0991075,
        "localidades_nombre": "Apodaca",
        "longitud": -108.0646583,
        "nombre_estado": "Chihuahua",
        "nombre_municipio": "Ascensión"
    },
    {
        "id": 209,
        "latitud": 28.9774242,
        "localidades_nombre": "Abraham González",
        "longitud": -107.4283878,
        "nombre_estado": "Chihuahua",
        "nombre_municipio": "Bachíniva"
    },
    {
        "id": 210,
        "latitud": 26.8549764,
        "localidades_nombre": "Adjuntas de Arriba",
        "longitud": -106.6677292,
        "nombre_estado": "Chihuahua",
        "nombre_municipio": "Balleza"
    },
    {
        "id": 211,
        "latitud": 27.0049342,
        "localidades_nombre": "Aboreachi",
        "longitud": -107.5804186,
        "nombre_estado": "Chihuahua",
        "nombre_municipio": "Batopilas de Manuel Gómez Morín"
    },
    {
        "id": 212,
        "latitud": 27.672365,
        "localidades_nombre": "Abureachi",
        "longitud": -107.4157708,
        "nombre_estado": "Chihuahua",
        "nombre_municipio": "Bocoyna"
    },
    {
        "id": 213,
        "latitud": 30.2223256,
        "localidades_nombre": "Acebuches",
        "longitud": -107.4233608,
        "nombre_estado": "Chihuahua",
        "nombre_municipio": "Buenaventura"
    },
    {
        "id": 214,
        "latitud": 27.9250544,
        "localidades_nombre": "Agua Chile",
        "longitud": -104.6137719,
        "nombre_estado": "Chihuahua",
        "nombre_municipio": "Camargo"
    },
    {
        "id": 215,
        "latitud": 27.7364978,
        "localidades_nombre": "Ahuecherare",
        "longitud": -107.0466983,
        "nombre_estado": "Chihuahua",
        "nombre_municipio": "Carichí"
    },
    {
        "id": 216,
        "latitud": 30.2596808,
        "localidades_nombre": "Agua Salada (La Salada)",
        "longitud": -108.4243389,
        "nombre_estado": "Chihuahua",
        "nombre_municipio": "Casas Grandes"
    },
    {
        "id": 217,
        "latitud": 26.6863575,
        "localidades_nombre": "Agua Hedionda",
        "longitud": -105.2204189,
        "nombre_estado": "Chihuahua",
        "nombre_municipio": "Coronado"
    },
    {
        "id": 218,
        "latitud": 30.1956533,
        "localidades_nombre": "Abiline",
        "longitud": -105.1695336,
        "nombre_estado": "Chihuahua",
        "nombre_municipio": "Coyame del Sotol"
    },
    {
        "id": 219,
        "latitud": 27.79521,
        "localidades_nombre": "5 Hermanos [Rancho]",
        "longitud": -105.1652744,
        "nombre_estado": "Chihuahua",
        "nombre_municipio": "La Cruz"
    },
    {
        "id": 220,
        "latitud": 28.3999422,
        "localidades_nombre": "Agricultores Unidos de Cuauhtémoc",
        "longitud": -106.9248694,
        "nombre_estado": "Chihuahua",
        "nombre_municipio": "Cuauhtémoc"
    },
    {
        "id": 221,
        "latitud": 28.1784456,
        "localidades_nombre": "Acayucan",
        "longitud": -107.0529319,
        "nombre_estado": "Chihuahua",
        "nombre_municipio": "Cusihuiriachi"
    },
    {
        "id": 222,
        "latitud": 28.3909264,
        "localidades_nombre": "Abraham González",
        "longitud": -105.7264033,
        "nombre_estado": "Chihuahua",
        "nombre_municipio": "Chihuahua"
    },
    {
        "id": 223,
        "latitud": 27.4591144,
        "localidades_nombre": "Agua Caliente",
        "longitud": -108.5292119,
        "nombre_estado": "Chihuahua",
        "nombre_municipio": "Chínipas"
    },
    {
        "id": 224,
        "latitud": 28.1272539,
        "localidades_nombre": "Agua Azul",
        "longitud": -105.3623306,
        "nombre_estado": "Chihuahua",
        "nombre_municipio": "Delicias"
    },
    {
        "id": 225,
        "latitud": 27.8167017,
        "localidades_nombre": "Agua Morada",
        "longitud": -106.3586336,
        "nombre_estado": "Chihuahua",
        "nombre_municipio": "Dr. Belisario Domínguez"
    },
    {
        "id": 226,
        "latitud": 29.9927406,
        "localidades_nombre": "Abdenago C. García (Lagunitas)",
        "longitud": -107.5533019,
        "nombre_estado": "Chihuahua",
        "nombre_municipio": "Galeana"
    },
    {
        "id": 227,
        "latitud": 28.3332875,
        "localidades_nombre": "Boquilla del Río",
        "longitud": -106.3556156,
        "nombre_estado": "Chihuahua",
        "nombre_municipio": "Santa Isabel"
    },
    {
        "id": 228,
        "latitud": 29.1700919,
        "localidades_nombre": "Agua Ferriz",
        "longitud": -107.6892047,
        "nombre_estado": "Chihuahua",
        "nombre_municipio": "Gómez Farías"
    },
    {
        "id": 229,
        "latitud": 28.2436192,
        "localidades_nombre": "Agua Puerca",
        "longitud": -106.4514511,
        "nombre_estado": "Chihuahua",
        "nombre_municipio": "Gran Morelos"
    },
    {
        "id": 230,
        "latitud": 26.7252172,
        "localidades_nombre": "Abirare",
        "longitud": -107.4051633,
        "nombre_estado": "Chihuahua",
        "nombre_municipio": "Guachochi"
    },
    {
        "id": 231,
        "latitud": 30.4335431,
        "localidades_nombre": "Agua Blanca",
        "longitud": -105.4112961,
        "nombre_estado": "Chihuahua",
        "nombre_municipio": "Guadalupe"
    },
    {
        "id": 232,
        "latitud": 26.1977608,
        "localidades_nombre": "Agua Amarilla",
        "longitud": -106.8199583,
        "nombre_estado": "Chihuahua",
        "nombre_municipio": "Guadalupe y Calvo"
    },
    {
        "id": 233,
        "latitud": 27.5418475,
        "localidades_nombre": "Achichuri",
        "longitud": -108.1587789,
        "nombre_estado": "Chihuahua",
        "nombre_municipio": "Guazapares"
    },
    {
        "id": 234,
        "latitud": 28.2120553,
        "localidades_nombre": "Acapulco",
        "longitud": -107.6372144,
        "nombre_estado": "Chihuahua",
        "nombre_municipio": "Guerrero"
    },
    {
        "id": 235,
        "latitud": 27.2154789,
        "localidades_nombre": "Agua Fría",
        "longitud": -105.4997531,
        "nombre_estado": "Chihuahua",
        "nombre_municipio": "Hidalgo del Parral"
    },
    {
        "id": 236,
        "latitud": 27.0026525,
        "localidades_nombre": "Agua Caliente",
        "longitud": -106.1059308,
        "nombre_estado": "Chihuahua",
        "nombre_municipio": "Huejotitán"
    },
    {
        "id": 237,
        "latitud": 29.7196464,
        "localidades_nombre": "Abraham González",
        "longitud": -107.8174725,
        "nombre_estado": "Chihuahua",
        "nombre_municipio": "Ignacio Zaragoza"
    },
    {
        "id": 238,
        "latitud": 30.7487503,
        "localidades_nombre": "Agua Blanca",
        "longitud": -108.6912603,
        "nombre_estado": "Chihuahua",
        "nombre_municipio": "Janos"
    },
    {
        "id": 239,
        "latitud": 27.3893969,
        "localidades_nombre": "Acebuches",
        "longitud": -104.8466589,
        "nombre_estado": "Chihuahua",
        "nombre_municipio": "Jiménez"
    },
    {
        "id": 240,
        "latitud": 31.3677358,
        "localidades_nombre": "Acapulco",
        "longitud": -106.4545356,
        "nombre_estado": "Chihuahua",
        "nombre_municipio": "Juárez"
    },
    {
        "id": 241,
        "latitud": 28.3075003,
        "localidades_nombre": "Agua Dulce",
        "longitud": -104.8964261,
        "nombre_estado": "Chihuahua",
        "nombre_municipio": "Julimes"
    },
    {
        "id": 242,
        "latitud": 26.9052111,
        "localidades_nombre": "4 de Agosto",
        "longitud": -105.1140875,
        "nombre_estado": "Chihuahua",
        "nombre_municipio": "López"
    },
    {
        "id": 243,
        "latitud": 28.7524019,
        "localidades_nombre": "Agua Amarilla",
        "longitud": -108.5009833,
        "nombre_estado": "Chihuahua",
        "nombre_municipio": "Madera"
    },
    {
        "id": 244,
        "latitud": 27.8767664,
        "localidades_nombre": "Agua Amarilla",
        "longitud": -107.9817875,
        "nombre_estado": "Chihuahua",
        "nombre_municipio": "Maguarichi"
    },
    {
        "id": 245,
        "latitud": 28.8544447,
        "localidades_nombre": "Agua Nueva",
        "longitud": -104.1497772,
        "nombre_estado": "Chihuahua",
        "nombre_municipio": "Manuel Benavides"
    },
    {
        "id": 246,
        "latitud": 28.9149383,
        "localidades_nombre": "Arroyo Grande",
        "longitud": -107.7264456,
        "nombre_estado": "Chihuahua",
        "nombre_municipio": "Matachí"
    },
    {
        "id": 247,
        "latitud": 26.8761067,
        "localidades_nombre": "Altamira",
        "longitud": -105.5082331,
        "nombre_estado": "Chihuahua",
        "nombre_municipio": "Matamoros"
    },
    {
        "id": 248,
        "latitud": 28.3606194,
        "localidades_nombre": "12 de Octubre",
        "longitud": -105.5888819,
        "nombre_estado": "Chihuahua",
        "nombre_municipio": "Meoqui"
    },
    {
        "id": 249,
        "latitud": 26.6944778,
        "localidades_nombre": "Aborare",
        "longitud": -107.5628225,
        "nombre_estado": "Chihuahua",
        "nombre_municipio": "Morelos"
    },
    {
        "id": 250,
        "latitud": 28.0569917,
        "localidades_nombre": "Agua Caliente",
        "longitud": -108.7289511,
        "nombre_estado": "Chihuahua",
        "nombre_municipio": "Moris"
    },
    {
        "id": 251,
        "latitud": 28.9279639,
        "localidades_nombre": "Adolfo Ruiz Cortínez (Providencia)",
        "longitud": -107.5053744,
        "nombre_estado": "Chihuahua",
        "nombre_municipio": "Namiquipa"
    },
    {
        "id": 252,
        "latitud": 27.376745,
        "localidades_nombre": "Agua Amarilla",
        "longitud": -106.7316125,
        "nombre_estado": "Chihuahua",
        "nombre_municipio": "Nonoava"
    },
    {
        "id": 253,
        "latitud": 30.4730347,
        "localidades_nombre": "Agrofami (Los Círculos)",
        "longitud": -107.8628839,
        "nombre_estado": "Chihuahua",
        "nombre_municipio": "Nuevo Casas Grandes"
    },
    {
        "id": 254,
        "latitud": 28.024495,
        "localidades_nombre": "Agua Caliente",
        "longitud": -108.3898903,
        "nombre_estado": "Chihuahua",
        "nombre_municipio": "Ocampo"
    },
    {
        "id": 255,
        "latitud": 29.5051425,
        "localidades_nombre": "3 Hermanos",
        "longitud": -104.4343856,
        "nombre_estado": "Chihuahua",
        "nombre_municipio": "Ojinaga"
    },
    {
        "id": 256,
        "latitud": 31.3591783,
        "localidades_nombre": "Bellavista",
        "longitud": -105.9807714,
        "nombre_estado": "Chihuahua",
        "nombre_municipio": "Praxedis G. Guerrero"
    },
    {
        "id": 257,
        "latitud": 28.4628389,
        "localidades_nombre": "Agua Zarca",
        "longitud": -106.3045158,
        "nombre_estado": "Chihuahua",
        "nombre_municipio": "Riva Palacio"
    },
    {
        "id": 258,
        "latitud": 28.2131653,
        "localidades_nombre": "Agua Nueva",
        "longitud": -105.500475,
        "nombre_estado": "Chihuahua",
        "nombre_municipio": "Rosales"
    },
    {
        "id": 259,
        "latitud": 27.3183597,
        "localidades_nombre": "Agua Caliente",
        "longitud": -106.3067394,
        "nombre_estado": "Chihuahua",
        "nombre_municipio": "Rosario"
    },
    {
        "id": 260,
        "latitud": 27.9175525,
        "localidades_nombre": "Agotare",
        "longitud": -106.7233158,
        "nombre_estado": "Chihuahua",
        "nombre_municipio": "San Francisco de Borja"
    },
    {
        "id": 261,
        "latitud": 27.5107258,
        "localidades_nombre": "Agua de Arriba (Babisas Grandes)",
        "longitud": -105.3814856,
        "nombre_estado": "Chihuahua",
        "nombre_municipio": "San Francisco de Conchos"
    },
    {
        "id": 262,
        "latitud": 26.8567194,
        "localidades_nombre": "3 Hermanos",
        "longitud": -106.1116167,
        "nombre_estado": "Chihuahua",
        "nombre_municipio": "San Francisco del Oro"
    },
    {
        "id": 263,
        "latitud": 26.7829122,
        "localidades_nombre": "Alamito",
        "longitud": -105.8427889,
        "nombre_estado": "Chihuahua",
        "nombre_municipio": "Santa Bárbara"
    },
    {
        "id": 264,
        "latitud": 27.4345947,
        "localidades_nombre": "Agua Caliente",
        "longitud": -106.2000519,
        "nombre_estado": "Chihuahua",
        "nombre_municipio": "Satevó"
    },
    {
        "id": 265,
        "latitud": 27.8362319,
        "localidades_nombre": "2 de Agosto",
        "longitud": -105.3073539,
        "nombre_estado": "Chihuahua",
        "nombre_municipio": "Saucillo"
    },
    {
        "id": 266,
        "latitud": 28.6190525,
        "localidades_nombre": "Agua Caliente",
        "longitud": -108.4008856,
        "nombre_estado": "Chihuahua",
        "nombre_municipio": "Temósachic"
    },
    {
        "id": 267,
        "latitud": 27.0996208,
        "localidades_nombre": "Agua Puerca",
        "longitud": -106.3359469,
        "nombre_estado": "Chihuahua",
        "nombre_municipio": "El Tule"
    },
    {
        "id": 268,
        "latitud": 27.2979331,
        "localidades_nombre": "Aborichi",
        "longitud": -108.1278378,
        "nombre_estado": "Chihuahua",
        "nombre_municipio": "Urique"
    },
    {
        "id": 269,
        "latitud": 27.9014406,
        "localidades_nombre": "Agua Amarga",
        "longitud": -108.2352861,
        "nombre_estado": "Chihuahua",
        "nombre_municipio": "Uruachi"
    },
    {
        "id": 270,
        "latitud": 27.5165194,
        "localidades_nombre": "Agostadero de Abajo",
        "longitud": -105.905265,
        "nombre_estado": "Chihuahua",
        "nombre_municipio": "Valle de Zaragoza"
    },
    {
        "id": 271,
        "latitud": 19.4841028,
        "localidades_nombre": "Azcapotzalco",
        "longitud": -99.1843606,
        "nombre_estado": "Ciudad de México",
        "nombre_municipio": "Azcapotzalco"
    },
    {
        "id": 272,
        "latitud": 19.3502139,
        "localidades_nombre": "Coyoacán",
        "longitud": -99.1621456,
        "nombre_estado": "Ciudad de México",
        "nombre_municipio": "Coyoacán"
    },
    {
        "id": 273,
        "latitud": 19.30384,
        "localidades_nombre": "Cola de Pato",
        "longitud": -99.3399583,
        "nombre_estado": "Ciudad de México",
        "nombre_municipio": "Cuajimalpa de Morelos"
    },
    {
        "id": 274,
        "latitud": 19.4829453,
        "localidades_nombre": "Gustavo A. Madero",
        "longitud": -99.1134708,
        "nombre_estado": "Ciudad de México",
        "nombre_municipio": "Gustavo A. Madero"
    },
    {
        "id": 275,
        "latitud": 19.3959014,
        "localidades_nombre": "Iztacalco",
        "longitud": -99.0976128,
        "nombre_estado": "Ciudad de México",
        "nombre_municipio": "Iztacalco"
    },
    {
        "id": 276,
        "latitud": 19.3590039,
        "localidades_nombre": "Iztapalapa",
        "longitud": -99.0926225,
        "nombre_estado": "Ciudad de México",
        "nombre_municipio": "Iztapalapa"
    },
    {
        "id": 277,
        "latitud": 19.2271233,
        "localidades_nombre": "Albergue Alpino Ajusco",
        "longitud": -99.2669122,
        "nombre_estado": "Ciudad de México",
        "nombre_municipio": "La Magdalena Contreras"
    },
    {
        "id": 278,
        "latitud": 19.2073078,
        "localidades_nombre": "AA Milpa Alta",
        "longitud": -99.0144933,
        "nombre_estado": "Ciudad de México",
        "nombre_municipio": "Milpa Alta"
    },
    {
        "id": 279,
        "latitud": 19.3019208,
        "localidades_nombre": "Ampliación San Bernabé (Tenango)",
        "longitud": -99.2746381,
        "nombre_estado": "Ciudad de México",
        "nombre_municipio": "Álvaro Obregón"
    },
    {
        "id": 280,
        "latitud": 19.2938178,
        "localidades_nombre": "Ampliación San Miguel",
        "longitud": -98.9700867,
        "nombre_estado": "Ciudad de México",
        "nombre_municipio": "Tláhuac"
    },
    {
        "id": 281,
        "latitud": 19.1192953,
        "localidades_nombre": "Acopiaxco [Campamento Forestal]",
        "longitud": -99.1670739,
        "nombre_estado": "Ciudad de México",
        "nombre_municipio": "Tlalpan"
    },
    {
        "id": 282,
        "latitud": 19.1917756,
        "localidades_nombre": "Acalipa",
        "longitud": -99.1232344,
        "nombre_estado": "Ciudad de México",
        "nombre_municipio": "Xochimilco"
    },
    {
        "id": 283,
        "latitud": 19.3719922,
        "localidades_nombre": "Benito Juárez",
        "longitud": -99.1578533,
        "nombre_estado": "Ciudad de México",
        "nombre_municipio": "Benito Juárez"
    },
    {
        "id": 284,
        "latitud": 19.4416467,
        "localidades_nombre": "Cuauhtémoc",
        "longitud": -99.1518836,
        "nombre_estado": "Ciudad de México",
        "nombre_municipio": "Cuauhtémoc"
    },
    {
        "id": 285,
        "latitud": 19.4072689,
        "localidades_nombre": "Miguel Hidalgo",
        "longitud": -99.1907544,
        "nombre_estado": "Ciudad de México",
        "nombre_municipio": "Miguel Hidalgo"
    },
    {
        "id": 286,
        "latitud": 19.4192619,
        "localidades_nombre": "Venustiano Carranza",
        "longitud": -99.1137011,
        "nombre_estado": "Ciudad de México",
        "nombre_municipio": "Venustiano Carranza"
    },
    {
        "id": 287,
        "latitud": 24.3918094,
        "localidades_nombre": "Agrícola Ganadera Bravo (San Rafael)",
        "longitud": -104.7284536,
        "nombre_estado": "Durango",
        "nombre_municipio": "Canatlán"
    },
    {
        "id": 288,
        "latitud": 25.0629656,
        "localidades_nombre": "Agua Amarilla",
        "longitud": -106.2440675,
        "nombre_estado": "Durango",
        "nombre_municipio": "Canelas"
    },
    {
        "id": 289,
        "latitud": 24.8064736,
        "localidades_nombre": "Agua el Mezquite",
        "longitud": -104.6422617,
        "nombre_estado": "Durango",
        "nombre_municipio": "Coneto de Comonfort"
    },
    {
        "id": 290,
        "latitud": 24.7071442,
        "localidades_nombre": "12 de Diciembre (Sombreretillo)",
        "longitud": -103.5726883,
        "nombre_estado": "Durango",
        "nombre_municipio": "Cuencamé"
    },
    {
        "id": 291,
        "latitud": 23.9864872,
        "localidades_nombre": "18 de Agosto",
        "longitud": -104.5374819,
        "nombre_estado": "Durango",
        "nombre_municipio": "Durango"
    },
    {
        "id": 292,
        "latitud": 24.7750875,
        "localidades_nombre": "Antón Martín",
        "longitud": -103.2697789,
        "nombre_estado": "Durango",
        "nombre_municipio": "General Simón Bolívar"
    },
    {
        "id": 293,
        "latitud": 25.8322058,
        "localidades_nombre": "18 de Marzo",
        "longitud": -103.3794408,
        "nombre_estado": "Durango",
        "nombre_municipio": "Gómez Palacio"
    },
    {
        "id": 294,
        "latitud": 24.2758881,
        "localidades_nombre": "Antonio Amaro (Saucillo)",
        "longitud": -104.0184019,
        "nombre_estado": "Durango",
        "nombre_municipio": "Guadalupe Victoria"
    },
    {
        "id": 295,
        "latitud": 25.7689497,
        "localidades_nombre": "Abraham Ramírez Corral",
        "longitud": -105.7980994,
        "nombre_estado": "Durango",
        "nombre_municipio": "Guanaceví"
    },
    {
        "id": 296,
        "latitud": 25.8040189,
        "localidades_nombre": "Agua Nueva",
        "longitud": -104.6266592,
        "nombre_estado": "Durango",
        "nombre_municipio": "Hidalgo"
    },
    {
        "id": 297,
        "latitud": 25.7466758,
        "localidades_nombre": "Buenos Aires (Chaparrientas)",
        "longitud": -105.0467642,
        "nombre_estado": "Durango",
        "nombre_municipio": "Indé"
    },
    {
        "id": 298,
        "latitud": 25.5269731,
        "localidades_nombre": "6 de Enero [Gasolinera]",
        "longitud": -103.6233108,
        "nombre_estado": "Durango",
        "nombre_municipio": "Lerdo"
    },
    {
        "id": 299,
        "latitud": 25.9017208,
        "localidades_nombre": "18 de Julio (Establo Chapingo)",
        "longitud": -103.5851589,
        "nombre_estado": "Durango",
        "nombre_municipio": "Mapimí"
    },
    {
        "id": 300,
        "latitud": 22.7506786,
        "localidades_nombre": "Abelino Castañeda",
        "longitud": -104.8185319,
        "nombre_estado": "Durango",
        "nombre_municipio": "Mezquital"
    },
    {
        "id": 301,
        "latitud": 25.2593389,
        "localidades_nombre": "Agustín Melgar",
        "longitud": -104.0646322,
        "nombre_estado": "Durango",
        "nombre_municipio": "Nazas"
    },
    {
        "id": 302,
        "latitud": 23.8391822,
        "localidades_nombre": "Aarón (Los Orona) [Rancho]",
        "longitud": -104.2533711,
        "nombre_estado": "Durango",
        "nombre_municipio": "Nombre de Dios"
    },
    {
        "id": 303,
        "latitud": 26.3860094,
        "localidades_nombre": "Agua Puerca",
        "longitud": -105.3768744,
        "nombre_estado": "Durango",
        "nombre_municipio": "Ocampo"
    },
    {
        "id": 304,
        "latitud": 25.7445242,
        "localidades_nombre": "Agua Fría",
        "longitud": -105.3154744,
        "nombre_estado": "Durango",
        "nombre_municipio": "El Oro"
    },
    {
        "id": 305,
        "latitud": 24.7890025,
        "localidades_nombre": "Acatita",
        "longitud": -106.0080378,
        "nombre_estado": "Durango",
        "nombre_municipio": "Otáez"
    },
    {
        "id": 306,
        "latitud": 24.5455331,
        "localidades_nombre": "Adolfo López Mateos (Aguinaldo)",
        "longitud": -104.4884222,
        "nombre_estado": "Durango",
        "nombre_municipio": "Pánuco de Coronado"
    },
    {
        "id": 307,
        "latitud": 24.7701358,
        "localidades_nombre": "Aarón Amaya",
        "longitud": -104.173575,
        "nombre_estado": "Durango",
        "nombre_municipio": "Peñón Blanco"
    },
    {
        "id": 308,
        "latitud": 23.97959,
        "localidades_nombre": "18 de Agosto",
        "longitud": -104.1997525,
        "nombre_estado": "Durango",
        "nombre_municipio": "Poanas"
    },
    {
        "id": 309,
        "latitud": 23.4544578,
        "localidades_nombre": "Abrevaderos",
        "longitud": -104.9148956,
        "nombre_estado": "Durango",
        "nombre_municipio": "Pueblo Nuevo"
    },
    {
        "id": 310,
        "latitud": 25.3117958,
        "localidades_nombre": "Abasolo",
        "longitud": -104.654705,
        "nombre_estado": "Durango",
        "nombre_municipio": "Rodeo"
    },
    {
        "id": 311,
        "latitud": 26.104765,
        "localidades_nombre": "Agua Encantada",
        "longitud": -105.5892819,
        "nombre_estado": "Durango",
        "nombre_municipio": "San Bernardo"
    },
    {
        "id": 312,
        "latitud": 24.4273678,
        "localidades_nombre": "Agua Blanca",
        "longitud": -105.7849675,
        "nombre_estado": "Durango",
        "nombre_municipio": "San Dimas"
    },
    {
        "id": 313,
        "latitud": 24.8412864,
        "localidades_nombre": "Acacio (Estación Acacio)",
        "longitud": -102.7825978,
        "nombre_estado": "Durango",
        "nombre_municipio": "San Juan de Guadalupe"
    },
    {
        "id": 314,
        "latitud": 24.7854858,
        "localidades_nombre": "Arroyo la Estancia",
        "longitud": -104.4995811,
        "nombre_estado": "Durango",
        "nombre_municipio": "San Juan del Río"
    },
    {
        "id": 315,
        "latitud": 25.3664103,
        "localidades_nombre": "El Duraznito",
        "longitud": -104.4070667,
        "nombre_estado": "Durango",
        "nombre_municipio": "San Luis del Cordero"
    },
    {
        "id": 316,
        "latitud": 25.7157022,
        "localidades_nombre": "Apantita",
        "longitud": -104.3098331,
        "nombre_estado": "Durango",
        "nombre_municipio": "San Pedro del Gallo"
    },
    {
        "id": 317,
        "latitud": 24.44002,
        "localidades_nombre": "Crucero de Santa Clara",
        "longitud": -103.4879717,
        "nombre_estado": "Durango",
        "nombre_municipio": "Santa Clara"
    },
    {
        "id": 318,
        "latitud": 24.690385,
        "localidades_nombre": "Acatita",
        "longitud": -105.3180292,
        "nombre_estado": "Durango",
        "nombre_municipio": "Santiago Papasquiaro"
    },
    {
        "id": 319,
        "latitud": 23.5499856,
        "localidades_nombre": "Alejandro",
        "longitud": -103.9406094,
        "nombre_estado": "Durango",
        "nombre_municipio": "Súchil"
    },
    {
        "id": 320,
        "latitud": 25.0090956,
        "localidades_nombre": "Acachuane",
        "longitud": -106.9578925,
        "nombre_estado": "Durango",
        "nombre_municipio": "Tamazula"
    },
    {
        "id": 321,
        "latitud": 25.4974678,
        "localidades_nombre": "Acapulco",
        "longitud": -106.4574856,
        "nombre_estado": "Durango",
        "nombre_municipio": "Tepehuanes"
    },
    {
        "id": 322,
        "latitud": 26.2013436,
        "localidades_nombre": "Alfredo V. Bonfil",
        "longitud": -103.7738369,
        "nombre_estado": "Durango",
        "nombre_municipio": "Tlahualilo"
    },
    {
        "id": 323,
        "latitud": 25.3068222,
        "localidades_nombre": "Agua Azul",
        "longitud": -106.6202667,
        "nombre_estado": "Durango",
        "nombre_municipio": "Topia"
    },
    {
        "id": 324,
        "latitud": 23.8062069,
        "localidades_nombre": "5 Hermanos",
        "longitud": -103.9320531,
        "nombre_estado": "Durango",
        "nombre_municipio": "Vicente Guerrero"
    },
    {
        "id": 325,
        "latitud": 24.8729147,
        "localidades_nombre": "Abraham Gunther Klassen",
        "longitud": -105.0300892,
        "nombre_estado": "Durango",
        "nombre_municipio": "Nuevo Ideal"
    },
    {
        "id": 326,
        "latitud": 20.4509,
        "localidades_nombre": "Abasolo",
        "longitud": -101.5283606,
        "nombre_estado": "Guanajuato",
        "nombre_municipio": "Abasolo"
    },
    {
        "id": 327,
        "latitud": 20.0353803,
        "localidades_nombre": "Acámbaro",
        "longitud": -100.7193264,
        "nombre_estado": "Guanajuato",
        "nombre_municipio": "Acámbaro"
    },
    {
        "id": 328,
        "latitud": 20.9171775,
        "localidades_nombre": "Agua Salada",
        "longitud": -100.9826242,
        "nombre_estado": "Guanajuato",
        "nombre_municipio": "San Miguel de Allende"
    },
    {
        "id": 329,
        "latitud": 20.4300767,
        "localidades_nombre": "Aguaje de Espejo",
        "longitud": -100.5449722,
        "nombre_estado": "Guanajuato",
        "nombre_municipio": "Apaseo el Alto"
    },
    {
        "id": 330,
        "latitud": 20.5229194,
        "localidades_nombre": "Advance Apaseo [Parque Industrial]",
        "longitud": -100.7472389,
        "nombre_estado": "Guanajuato",
        "nombre_municipio": "Apaseo el Grande"
    },
    {
        "id": 331,
        "latitud": 21.1772975,
        "localidades_nombre": "Aldama (Xoconoxtle)",
        "longitud": -99.833865,
        "nombre_estado": "Guanajuato",
        "nombre_municipio": "Atarjea"
    },
    {
        "id": 332,
        "latitud": 20.5543972,
        "localidades_nombre": "Agua Caliente",
        "longitud": -100.7406419,
        "nombre_estado": "Guanajuato",
        "nombre_municipio": "Celaya"
    },
    {
        "id": 333,
        "latitud": 20.582945,
        "localidades_nombre": "Agua Nueva",
        "longitud": -101.8268244,
        "nombre_estado": "Guanajuato",
        "nombre_municipio": "Manuel Doblado"
    },
    {
        "id": 334,
        "latitud": 20.7796228,
        "localidades_nombre": "Agua Blanca",
        "longitud": -100.673915,
        "nombre_estado": "Guanajuato",
        "nombre_municipio": "Comonfort"
    },
    {
        "id": 335,
        "latitud": 20.1666892,
        "localidades_nombre": "Acatlán",
        "longitud": -100.38895,
        "nombre_estado": "Guanajuato",
        "nombre_municipio": "Coroneo"
    },
    {
        "id": 336,
        "latitud": 20.5066125,
        "localidades_nombre": "Adrián Vázquez Delgadillo (La Cotera)",
        "longitud": -101.0257781,
        "nombre_estado": "Guanajuato",
        "nombre_municipio": "Cortazar"
    },
    {
        "id": 337,
        "latitud": 20.5335483,
        "localidades_nombre": "18 de Marzo (El Tope)",
        "longitud": -101.6024572,
        "nombre_estado": "Guanajuato",
        "nombre_municipio": "Cuerámaro"
    },
    {
        "id": 338,
        "latitud": 21.1582031,
        "localidades_nombre": "Arroyo de la Plata (San Miguel)",
        "longitud": -100.2967794,
        "nombre_estado": "Guanajuato",
        "nombre_municipio": "Doctor Mora"
    },
    {
        "id": 339,
        "latitud": 21.3080467,
        "localidades_nombre": "Adjuntas del Monte",
        "longitud": -100.797855,
        "nombre_estado": "Guanajuato",
        "nombre_municipio": "Dolores Hidalgo Cuna de la Independencia Nacional"
    },
    {
        "id": 340,
        "latitud": 21.0988489,
        "localidades_nombre": "Agua Buena",
        "longitud": -101.1293425,
        "nombre_estado": "Guanajuato",
        "nombre_municipio": "Guanajuato"
    },
    {
        "id": 341,
        "latitud": 20.3402828,
        "localidades_nombre": "Antonio Camarillo (El Siete)",
        "longitud": -101.5199058,
        "nombre_estado": "Guanajuato",
        "nombre_municipio": "Huanímaro"
    },
    {
        "id": 342,
        "latitud": 20.7465581,
        "localidades_nombre": "Adjuntas",
        "longitud": -101.2606108,
        "nombre_estado": "Guanajuato",
        "nombre_municipio": "Irapuato"
    },
    {
        "id": 343,
        "latitud": 20.3976836,
        "localidades_nombre": "Aarón García Tamayo (San Ramón)",
        "longitud": -101.0485481,
        "nombre_estado": "Guanajuato",
        "nombre_municipio": "Jaral del Progreso"
    },
    {
        "id": 344,
        "latitud": 20.2249103,
        "localidades_nombre": "Altamira",
        "longitud": -100.4520058,
        "nombre_estado": "Guanajuato",
        "nombre_municipio": "Jerécuaro"
    },
    {
        "id": 345,
        "latitud": 21.0166111,
        "localidades_nombre": "Advance Puerto Interior",
        "longitud": -101.5006944,
        "nombre_estado": "Guanajuato",
        "nombre_municipio": "León"
    },
    {
        "id": 346,
        "latitud": 20.0556381,
        "localidades_nombre": "Amoles",
        "longitud": -101.3084078,
        "nombre_estado": "Guanajuato",
        "nombre_municipio": "Moroleón"
    },
    {
        "id": 347,
        "latitud": 21.6497542,
        "localidades_nombre": "20 de Noviembre (El Veinte)",
        "longitud": -101.5778019,
        "nombre_estado": "Guanajuato",
        "nombre_municipio": "Ocampo"
    },
    {
        "id": 348,
        "latitud": 20.4878117,
        "localidades_nombre": "Abdón Álvarez Orihuela",
        "longitud": -101.6377739,
        "nombre_estado": "Guanajuato",
        "nombre_municipio": "Pénjamo"
    },
    {
        "id": 349,
        "latitud": 20.5270031,
        "localidades_nombre": "Antonio Rodríguez Ortiz",
        "longitud": -101.3777386,
        "nombre_estado": "Guanajuato",
        "nombre_municipio": "Pueblo Nuevo"
    },
    {
        "id": 350,
        "latitud": 21.0497222,
        "localidades_nombre": "Bambú (Vargas Padilla)",
        "longitud": -101.8672222,
        "nombre_estado": "Guanajuato",
        "nombre_municipio": "Purísima del Rincón"
    },
    {
        "id": 351,
        "latitud": 20.8406733,
        "localidades_nombre": "Amansio Elías",
        "longitud": -101.5275078,
        "nombre_estado": "Guanajuato",
        "nombre_municipio": "Romita"
    },
    {
        "id": 352,
        "latitud": 20.6462467,
        "localidades_nombre": "Adrián Patiño Ornelas",
        "longitud": -101.1951192,
        "nombre_estado": "Guanajuato",
        "nombre_municipio": "Salamanca"
    },
    {
        "id": 353,
        "latitud": 20.2294647,
        "localidades_nombre": "Alejo Ortega",
        "longitud": -100.9316192,
        "nombre_estado": "Guanajuato",
        "nombre_municipio": "Salvatierra"
    },
    {
        "id": 354,
        "latitud": 21.5119461,
        "localidades_nombre": "Ama Lur",
        "longitud": -100.7509406,
        "nombre_estado": "Guanajuato",
        "nombre_municipio": "San Diego de la Unión"
    },
    {
        "id": 355,
        "latitud": 21.6332086,
        "localidades_nombre": "Agua Blanca",
        "longitud": -101.0125161,
        "nombre_estado": "Guanajuato",
        "nombre_municipio": "San Felipe"
    },
    {
        "id": 356,
        "latitud": 20.9975925,
        "localidades_nombre": "Arroyo Seco",
        "longitud": -101.8152686,
        "nombre_estado": "Guanajuato",
        "nombre_municipio": "San Francisco del Rincón"
    },
    {
        "id": 357,
        "latitud": 21.0579331,
        "localidades_nombre": "Abel Rico Mendoza",
        "longitud": -100.3327939,
        "nombre_estado": "Guanajuato",
        "nombre_municipio": "San José Iturbide"
    },
    {
        "id": 358,
        "latitud": 21.2961111,
        "localidades_nombre": "10 de Abril",
        "longitud": -100.4358333,
        "nombre_estado": "Guanajuato",
        "nombre_municipio": "San Luis de la Paz"
    },
    {
        "id": 359,
        "latitud": 21.1455233,
        "localidades_nombre": "Agua Buena",
        "longitud": -100.0659867,
        "nombre_estado": "Guanajuato",
        "nombre_municipio": "Santa Catarina"
    },
    {
        "id": 360,
        "latitud": 20.6048125,
        "localidades_nombre": "Agua Nueva",
        "longitud": -100.8930672,
        "nombre_estado": "Guanajuato",
        "nombre_municipio": "Santa Cruz de Juventino Rosas"
    },
    {
        "id": 361,
        "latitud": 20.2072542,
        "localidades_nombre": "Colonia Morelos",
        "longitud": -101.0202008,
        "nombre_estado": "Guanajuato",
        "nombre_municipio": "Santiago Maravatío"
    },
    {
        "id": 362,
        "latitud": 20.970065,
        "localidades_nombre": "Aguas Buenas",
        "longitud": -101.3736561,
        "nombre_estado": "Guanajuato",
        "nombre_municipio": "Silao de la Victoria"
    },
    {
        "id": 363,
        "latitud": 20.0065278,
        "localidades_nombre": "Barrio de Santiago",
        "longitud": -100.5086194,
        "nombre_estado": "Guanajuato",
        "nombre_municipio": "Tarandacuao"
    },
    {
        "id": 364,
        "latitud": 20.2952939,
        "localidades_nombre": "Ashram 20 (Gran Fraternidad)",
        "longitud": -100.7426797,
        "nombre_estado": "Guanajuato",
        "nombre_municipio": "Tarimoro"
    },
    {
        "id": 365,
        "latitud": 20.9415989,
        "localidades_nombre": "Aguilares",
        "longitud": -100.1433683,
        "nombre_estado": "Guanajuato",
        "nombre_municipio": "Tierra Blanca"
    },
    {
        "id": 366,
        "latitud": 20.1663989,
        "localidades_nombre": "Buena Vista",
        "longitud": -101.1629653,
        "nombre_estado": "Guanajuato",
        "nombre_municipio": "Uriangato"
    },
    {
        "id": 367,
        "latitud": 20.4644481,
        "localidades_nombre": "Adolfo Cortez (El Cenegal)",
        "longitud": -101.3877553,
        "nombre_estado": "Guanajuato",
        "nombre_municipio": "Valle de Santiago"
    },
    {
        "id": 368,
        "latitud": 21.5137186,
        "localidades_nombre": "Agua Fría",
        "longitud": -100.17926,
        "nombre_estado": "Guanajuato",
        "nombre_municipio": "Victoria"
    },
    {
        "id": 369,
        "latitud": 20.5508875,
        "localidades_nombre": "Alberca Linares",
        "longitud": -100.9742394,
        "nombre_estado": "Guanajuato",
        "nombre_municipio": "Villagrán"
    },
    {
        "id": 370,
        "latitud": 21.3480931,
        "localidades_nombre": "Adjuntas",
        "longitud": -100.0268978,
        "nombre_estado": "Guanajuato",
        "nombre_municipio": "Xichú"
    },
    {
        "id": 371,
        "latitud": 20.2053675,
        "localidades_nombre": "5 de Mayo",
        "longitud": -101.1478889,
        "nombre_estado": "Guanajuato",
        "nombre_municipio": "Yuriria"
    },
    {
        "id": 372,
        "latitud": 16.8290872,
        "localidades_nombre": "10 de Abril",
        "longitud": -99.7408522,
        "nombre_estado": "Guerrero",
        "nombre_municipio": "Acapulco de Juárez"
    },
    {
        "id": 373,
        "latitud": 17.7682222,
        "localidades_nombre": "Acateyahualco",
        "longitud": -99.0267414,
        "nombre_estado": "Guerrero",
        "nombre_municipio": "Ahuacuotzingo"
    },
    {
        "id": 374,
        "latitud": 18.1229994,
        "localidades_nombre": "Agua Escondida",
        "longitud": -100.4751717,
        "nombre_estado": "Guerrero",
        "nombre_municipio": "Ajuchitlán del Progreso"
    },
    {
        "id": 375,
        "latitud": 17.3830442,
        "localidades_nombre": "Acametla de Bravo",
        "longitud": -98.3604353,
        "nombre_estado": "Guerrero",
        "nombre_municipio": "Alcozauca de Guerrero"
    },
    {
        "id": 376,
        "latitud": 17.6700639,
        "localidades_nombre": "Alpoyeca",
        "longitud": -98.5132389,
        "nombre_estado": "Guerrero",
        "nombre_municipio": "Alpoyeca"
    },
    {
        "id": 377,
        "latitud": 18.1748822,
        "localidades_nombre": "Alceseca",
        "longitud": -100.0506769,
        "nombre_estado": "Guerrero",
        "nombre_municipio": "Apaxtla"
    },
    {
        "id": 378,
        "latitud": 18.1400411,
        "localidades_nombre": "Achotla",
        "longitud": -100.1649017,
        "nombre_estado": "Guerrero",
        "nombre_municipio": "Arcelia"
    },
    {
        "id": 379,
        "latitud": 18.4664961,
        "localidades_nombre": "Agua Salada",
        "longitud": -99.1517283,
        "nombre_estado": "Guerrero",
        "nombre_municipio": "Atenango del Río"
    },
    {
        "id": 380,
        "latitud": 17.3116553,
        "localidades_nombre": "Atlamajalcingo del Monte",
        "longitud": -98.6050853,
        "nombre_estado": "Guerrero",
        "nombre_municipio": "Atlamajalcingo del Monte"
    },
    {
        "id": 381,
        "latitud": 17.5386731,
        "localidades_nombre": "Acalco",
        "longitud": -98.8980578,
        "nombre_estado": "Guerrero",
        "nombre_municipio": "Atlixtac"
    },
    {
        "id": 382,
        "latitud": 17.2918236,
        "localidades_nombre": "Agua Fría",
        "longitud": -100.4014256,
        "nombre_estado": "Guerrero",
        "nombre_municipio": "Atoyac de Álvarez"
    },
    {
        "id": 383,
        "latitud": 17.0905006,
        "localidades_nombre": "Acalmani",
        "longitud": -99.1187169,
        "nombre_estado": "Guerrero",
        "nombre_municipio": "Ayutla de los Libres"
    },
    {
        "id": 384,
        "latitud": 16.7772436,
        "localidades_nombre": "Agua Fría",
        "longitud": -98.5827553,
        "nombre_estado": "Guerrero",
        "nombre_municipio": "Azoyú"
    },
    {
        "id": 385,
        "latitud": 17.1394444,
        "localidades_nombre": "Arenal de Gómez (Primer Arenal)",
        "longitud": -100.4577778,
        "nombre_estado": "Guerrero",
        "nombre_municipio": "Benito Juárez"
    },
    {
        "id": 386,
        "latitud": 18.519,
        "localidades_nombre": "Agua Bendita",
        "longitud": -99.4329367,
        "nombre_estado": "Guerrero",
        "nombre_municipio": "Buenavista de Cuéllar"
    },
    {
        "id": 387,
        "latitud": 18.0400017,
        "localidades_nombre": "Algodoncillos",
        "longitud": -101.5555219,
        "nombre_estado": "Guerrero",
        "nombre_municipio": "Coahuayutla de José María Izazaga"
    },
    {
        "id": 388,
        "latitud": 18.127765,
        "localidades_nombre": "Acalmantlila",
        "longitud": -99.7615,
        "nombre_estado": "Guerrero",
        "nombre_municipio": "Cocula"
    },
    {
        "id": 389,
        "latitud": 16.6394647,
        "localidades_nombre": "Achotillos (Pochotillos)",
        "longitud": -98.9585808,
        "nombre_estado": "Guerrero",
        "nombre_municipio": "Copala"
    },
    {
        "id": 390,
        "latitud": 17.9031731,
        "localidades_nombre": "Acingo",
        "longitud": -99.1044133,
        "nombre_estado": "Guerrero",
        "nombre_municipio": "Copalillo"
    },
    {
        "id": 391,
        "latitud": 17.3983506,
        "localidades_nombre": "Ahuastepec",
        "longitud": -98.7169878,
        "nombre_estado": "Guerrero",
        "nombre_municipio": "Copanatoyac"
    },
    {
        "id": 392,
        "latitud": 17.074425,
        "localidades_nombre": "Agua Hedionda",
        "longitud": -99.9374969,
        "nombre_estado": "Guerrero",
        "nombre_municipio": "Coyuca de Benítez"
    },
    {
        "id": 393,
        "latitud": 18.3122061,
        "localidades_nombre": "Acapulquito [Restaurante]",
        "longitud": -100.7031794,
        "nombre_estado": "Guerrero",
        "nombre_municipio": "Coyuca de Catalán"
    },
    {
        "id": 394,
        "latitud": 16.4814017,
        "localidades_nombre": "Altos de Baraña",
        "longitud": -98.5921461,
        "nombre_estado": "Guerrero",
        "nombre_municipio": "Cuajinicuilapa"
    },
    {
        "id": 395,
        "latitud": 17.7552983,
        "localidades_nombre": "Agua Zulco",
        "longitud": -98.6088794,
        "nombre_estado": "Guerrero",
        "nombre_municipio": "Cualác"
    },
    {
        "id": 396,
        "latitud": 16.7678761,
        "localidades_nombre": "Alto Barreto",
        "longitud": -99.0752339,
        "nombre_estado": "Guerrero",
        "nombre_municipio": "Cuautepec"
    },
    {
        "id": 397,
        "latitud": 18.1277217,
        "localidades_nombre": "Agua del Tepetate",
        "longitud": -99.8385131,
        "nombre_estado": "Guerrero",
        "nombre_municipio": "Cuetzala del Progreso"
    },
    {
        "id": 398,
        "latitud": 18.5458939,
        "localidades_nombre": "Agua de los Cuches",
        "longitud": -100.5511272,
        "nombre_estado": "Guerrero",
        "nombre_municipio": "Cutzamala de Pinzón"
    },
    {
        "id": 399,
        "latitud": 17.5935131,
        "localidades_nombre": "24 de Febrero",
        "longitud": -99.1537497,
        "nombre_estado": "Guerrero",
        "nombre_municipio": "Chilapa de Álvarez"
    },
    {
        "id": 400,
        "latitud": 17.3612903,
        "localidades_nombre": "Acahuizotla",
        "longitud": -99.4670386,
        "nombre_estado": "Guerrero",
        "nombre_municipio": "Chilpancingo de los Bravo"
    },
    {
        "id": 401,
        "latitud": 16.6852256,
        "localidades_nombre": "Acapulquito",
        "longitud": -99.1756411,
        "nombre_estado": "Guerrero",
        "nombre_municipio": "Florencio Villarreal"
    },
    {
        "id": 402,
        "latitud": 18.4184847,
        "localidades_nombre": "Acapetlahuaya",
        "longitud": -100.0720517,
        "nombre_estado": "Guerrero",
        "nombre_municipio": "General Canuto A. Neri"
    },
    {
        "id": 403,
        "latitud": 17.9310928,
        "localidades_nombre": "Acatlán del Río",
        "longitud": -99.9008725,
        "nombre_estado": "Guerrero",
        "nombre_municipio": "General Heliodoro Castillo"
    },
    {
        "id": 404,
        "latitud": 17.7852367,
        "localidades_nombre": "Agua Tecuapura",
        "longitud": -98.5624581,
        "nombre_estado": "Guerrero",
        "nombre_municipio": "Huamuxtitlán"
    },
    {
        "id": 405,
        "latitud": 18.1128694,
        "localidades_nombre": "Acaquila",
        "longitud": -99.2851889,
        "nombre_estado": "Guerrero",
        "nombre_municipio": "Huitzuco de los Figueroa"
    },
    {
        "id": 406,
        "latitud": 18.09228,
        "localidades_nombre": "Agua del Perro",
        "longitud": -99.6149386,
        "nombre_estado": "Guerrero",
        "nombre_municipio": "Iguala de la Independencia"
    },
    {
        "id": 407,
        "latitud": 16.8163242,
        "localidades_nombre": "Acalmani",
        "longitud": -98.5062667,
        "nombre_estado": "Guerrero",
        "nombre_municipio": "Igualapa"
    },
    {
        "id": 408,
        "latitud": 18.4777958,
        "localidades_nombre": "Amealco",
        "longitud": -99.7153517,
        "nombre_estado": "Guerrero",
        "nombre_municipio": "Ixcateopan de Cuauhtémoc"
    },
    {
        "id": 409,
        "latitud": 17.8933333,
        "localidades_nombre": "Agua Fría",
        "longitud": -101.5538889,
        "nombre_estado": "Guerrero",
        "nombre_municipio": "Zihuatanejo de Azueta"
    },
    {
        "id": 410,
        "latitud": 17.1672522,
        "localidades_nombre": "Agua Escondida",
        "longitud": -99.5556017,
        "nombre_estado": "Guerrero",
        "nombre_municipio": "Juan R. Escudero"
    },
    {
        "id": 411,
        "latitud": 17.6692283,
        "localidades_nombre": "Agua de Panteón de Corralitos",
        "longitud": -99.8639047,
        "nombre_estado": "Guerrero",
        "nombre_municipio": "Leonardo Bravo"
    },
    {
        "id": 412,
        "latitud": 17.0522008,
        "localidades_nombre": "Adolfo López Mateos",
        "longitud": -98.7396597,
        "nombre_estado": "Guerrero",
        "nombre_municipio": "Malinaltepec"
    },
    {
        "id": 413,
        "latitud": 17.9029564,
        "localidades_nombre": "Ahuetlixpa",
        "longitud": -99.2943517,
        "nombre_estado": "Guerrero",
        "nombre_municipio": "Mártir de Cuilapan"
    },
    {
        "id": 414,
        "latitud": 16.9588225,
        "localidades_nombre": "Arroyo Ciruelo",
        "longitud": -98.4646392,
        "nombre_estado": "Guerrero",
        "nombre_municipio": "Metlatónoc"
    },
    {
        "id": 415,
        "latitud": 17.4277456,
        "localidades_nombre": "Chacotla",
        "longitud": -99.4246858,
        "nombre_estado": "Guerrero",
        "nombre_municipio": "Mochitlán"
    },
    {
        "id": 416,
        "latitud": 17.8757408,
        "localidades_nombre": "Agua Zarca (Zompepeltzin)",
        "longitud": -98.8179886,
        "nombre_estado": "Guerrero",
        "nombre_municipio": "Olinalá"
    },
    {
        "id": 417,
        "latitud": 16.7377981,
        "localidades_nombre": "Acatepec",
        "longitud": -98.4284333,
        "nombre_estado": "Guerrero",
        "nombre_municipio": "Ometepec"
    },
    {
        "id": 418,
        "latitud": 18.5535567,
        "localidades_nombre": "Acatla",
        "longitud": -99.9099711,
        "nombre_estado": "Guerrero",
        "nombre_municipio": "Pedro Ascencio Alquisiras"
    },
    {
        "id": 419,
        "latitud": 17.4706072,
        "localidades_nombre": "4 Vidas",
        "longitud": -101.2398908,
        "nombre_estado": "Guerrero",
        "nombre_municipio": "Petatlán"
    },
    {
        "id": 420,
        "latitud": 18.6707817,
        "localidades_nombre": "Amatitlán",
        "longitud": -99.6118328,
        "nombre_estado": "Guerrero",
        "nombre_municipio": "Pilcaya"
    },
    {
        "id": 421,
        "latitud": 18.3221231,
        "localidades_nombre": "Chacamerito",
        "longitud": -100.5891164,
        "nombre_estado": "Guerrero",
        "nombre_municipio": "Pungarabato"
    },
    {
        "id": 422,
        "latitud": 17.4734894,
        "localidades_nombre": "Achigca",
        "longitud": -99.234765,
        "nombre_estado": "Guerrero",
        "nombre_municipio": "Quechultenango"
    },
    {
        "id": 423,
        "latitud": 17.2213922,
        "localidades_nombre": "Altepec",
        "longitud": -98.628395,
        "nombre_estado": "Guerrero",
        "nombre_municipio": "San Luis Acatlán"
    },
    {
        "id": 424,
        "latitud": 16.7515994,
        "localidades_nombre": "Acamiel",
        "longitud": -99.3180486,
        "nombre_estado": "Guerrero",
        "nombre_municipio": "San Marcos"
    },
    {
        "id": 425,
        "latitud": 17.6575119,
        "localidades_nombre": "Agua Escondida (Descombro)",
        "longitud": -100.318865,
        "nombre_estado": "Guerrero",
        "nombre_municipio": "San Miguel Totolapan"
    },
    {
        "id": 426,
        "latitud": 18.5646744,
        "localidades_nombre": "Acamixtla",
        "longitud": -99.5645342,
        "nombre_estado": "Guerrero",
        "nombre_municipio": "Taxco de Alarcón"
    },
    {
        "id": 427,
        "latitud": 16.9688972,
        "localidades_nombre": "Barrio Nuevo",
        "longitud": -99.2364747,
        "nombre_estado": "Guerrero",
        "nombre_municipio": "Tecoanapa"
    },
    {
        "id": 428,
        "latitud": 17.2156683,
        "localidades_nombre": "Acatolín",
        "longitud": -100.6879044,
        "nombre_estado": "Guerrero",
        "nombre_municipio": "Técpan de Galeana"
    },
    {
        "id": 429,
        "latitud": 18.433115,
        "localidades_nombre": "Acachautla",
        "longitud": -99.8492022,
        "nombre_estado": "Guerrero",
        "nombre_municipio": "Teloloapan"
    },
    {
        "id": 430,
        "latitud": 18.2965475,
        "localidades_nombre": "AMEX [Empacadora]",
        "longitud": -99.4514356,
        "nombre_estado": "Guerrero",
        "nombre_municipio": "Tepecoacuilco de Trujano"
    },
    {
        "id": 431,
        "latitud": 18.6250086,
        "localidades_nombre": "Agua de Flores",
        "longitud": -99.7311994,
        "nombre_estado": "Guerrero",
        "nombre_municipio": "Tetipac"
    },
    {
        "id": 432,
        "latitud": 17.644205,
        "localidades_nombre": "Acatempa",
        "longitud": -99.3690792,
        "nombre_estado": "Guerrero",
        "nombre_municipio": "Tixtla de Guerrero"
    },
    {
        "id": 433,
        "latitud": 16.7828022,
        "localidades_nombre": "Arroyo Chambale",
        "longitud": -98.2821958,
        "nombre_estado": "Guerrero",
        "nombre_municipio": "Tlacoachistlahuaca"
    },
    {
        "id": 434,
        "latitud": 17.2611506,
        "localidades_nombre": "27 de Septiembre",
        "longitud": -98.7465122,
        "nombre_estado": "Guerrero",
        "nombre_municipio": "Tlacoapa"
    },
    {
        "id": 435,
        "latitud": 18.5841875,
        "localidades_nombre": "Cacánicua (Cacánicua de Abajo)",
        "longitud": -100.4431492,
        "nombre_estado": "Guerrero",
        "nombre_municipio": "Tlalchapa"
    },
    {
        "id": 436,
        "latitud": 17.5756258,
        "localidades_nombre": "Ahuacatitlán (Aguacatitlán)",
        "longitud": -98.4259714,
        "nombre_estado": "Guerrero",
        "nombre_municipio": "Tlalixtaquilla de Maldonado"
    },
    {
        "id": 437,
        "latitud": 17.6346933,
        "localidades_nombre": "Acatenco",
        "longitud": -98.6301156,
        "nombre_estado": "Guerrero",
        "nombre_municipio": "Tlapa de Comonfort"
    },
    {
        "id": 438,
        "latitud": 18.2956019,
        "localidades_nombre": "Agua Colorada",
        "longitud": -100.453015,
        "nombre_estado": "Guerrero",
        "nombre_municipio": "Tlapehuala"
    },
    {
        "id": 439,
        "latitud": 18.0779878,
        "localidades_nombre": "Agua Zarca",
        "longitud": -101.9291914,
        "nombre_estado": "Guerrero",
        "nombre_municipio": "La Unión de Isidoro Montes de Oca"
    },
    {
        "id": 440,
        "latitud": 17.4700864,
        "localidades_nombre": "Achichipico",
        "longitud": -98.6188869,
        "nombre_estado": "Guerrero",
        "nombre_municipio": "Xalpatláhuac"
    },
    {
        "id": 441,
        "latitud": 17.8521825,
        "localidades_nombre": "Acazintla",
        "longitud": -98.4285247,
        "nombre_estado": "Guerrero",
        "nombre_municipio": "Xochihuehuetlán"
    },
    {
        "id": 442,
        "latitud": 16.7594825,
        "localidades_nombre": "Arroyo Blanquillo",
        "longitud": -98.2136672,
        "nombre_estado": "Guerrero",
        "nombre_municipio": "Xochistlahuaca"
    },
    {
        "id": 443,
        "latitud": 17.3269811,
        "localidades_nombre": "Acalmani de las Tablas",
        "longitud": -98.7905139,
        "nombre_estado": "Guerrero",
        "nombre_municipio": "Zapotitlán Tablas"
    },